Airport Code;Airport Name;City Name;Country Name;Country Code;Latitude;Longitude;World Area Code;City Name geo_name_id;Country Name geo_name_id;coordinates
HKS;Hawkins Field;Jackson;United States;US;32.333611;-90.222222;67;5828648;6252001;32.333611, -90.222222
CIN;Carroll;Carroll;United States;US;42.05;-94.783333;67;4850478;6252001;42.05, -94.783333
KOA;Kona International Airport;Kona, HI;United States;US;19.738889;-156.045556;67;\N;6252001;19.738889, -156.045556
GNG;Gooding;Gooding;United States;US;42.916667;-114.783333;67;5594307;6252001;42.916667, -114.783333
EYW;International;Key West;United States;US;24.55;-81.766667;67;4160812;6252001;24.55, -81.766667
ISW;Alexander Field;Wisconsin Rapids;United States;US;44.766667;-89.677778;67;5279436;6252001;44.766667, -89.677778
TAD;Las Animas;Trinidad;United States;US;5.416667;-71.666667;67;5442007;6252001;5.416667, -71.666667
BBW;Broken Bow;Broken Bow;United States;US;41.4;-99.633333;67;5064638;6252001;41.4, -99.633333
KLS;Longview;Kelso;United States;US;46.15;-122.9;67;5799571;6252001;46.15, -122.9
SVC;Grant County;Silver City;United States;US;32.633333;-108.166667;67;5491487;6252001;32.633333, -108.166667
SNK;Winston Field;Snyder;United States;US;32.7;-100.95;67;5530921;6252001;32.7, -100.95
HTO;East Hampton;East Hampton;United States;US;40.966667;-72.233333;67;5115871;6252001;40.966667, -72.233333
HAE;Havasupai;Havasupai;United States;US;36.230556;-112.669444;67;\N;6252001;36.230556, -112.669444
FPY;Perry-Foley;Perry;United States;US;30.116667;-83.583333;67;5779613;6252001;30.116667, -83.583333
OLM;Olympia;Olympia;United States;US;46.966667;-122.9;67;5805687;6252001;46.966667, -122.9
TKL;Taku SPB;Taku Lodge;United States;US;59.783333;-1.25;67;\N;6252001;59.783333, -1.25
AND;Anderson;Anderson;United States;US;34.5;-82.716667;67;5558857;6252001;34.5, -82.716667
AGN;Angoon;Angoon;United States;US;57.5;-134.583333;67;\N;6252001;57.5, -134.583333
HCA;Howard County;Big Spring;United States;US;32.3;-101.433333;67;5517061;6252001;32.3, -101.433333
DNN;Municipal;Dalton;United States;US;34.716667;-84.866667;67;5186267;6252001;34.716667, -84.866667
BGR;Bangor International Airport;Bangor;United States;US;44.8;-68.816667;67;5244626;6252001;44.8, -68.816667
BOW;Bartow;Bartow;United States;US;27.933333;-81.783333;67;4146723;6252001;27.933333, -81.783333
KEB;Nanwalek;Nanwalek;United States;US;59.366667;-151.916667;67;\N;6252001;59.366667, -151.916667
OAK;Oakland International Airport;Oakland;United States;US;37.716667;-122.216667;67;5378538;6252001;37.716667, -122.216667
STS;Sonoma County;Santa Rosa;United States;US;38.516667;-122.8;67;5490338;6252001;38.516667, -122.8
EFW;Municipal;Jefferson;United States;US;42.016667;-94.383333;67;5733532;6252001;42.016667, -94.383333
CGF;Cuyahoga County;Cleveland;United States;US;41.5525;-81.483889;67;5248933;6252001;41.5525, -81.483889
BFD;Bradford;Bradford;United States;US;41.8;-78.633333;67;5221030;6252001;41.8, -78.633333
LHV;W T Piper Memorial;Lock Haven;United States;US;41.133333;-77.45;67;5198635;6252001;41.133333, -77.45
BSF;Bradshaw AAF;Pohakuloa;United States;US;66.15;25.866667;67;\N;6252001;66.15, 25.866667
KKA;Koyuk;Koyuk;United States;US;64.916667;-161.133333;67;\N;6252001;64.916667, -161.133333
FDK;Frederick Municipal;Frederick;United States;US;39.4175;-77.374444;67;5577217;6252001;39.4175, -77.374444
PTC;Port Alice;Port Alice;United States;US;55.791667;-133.6;67;\N;6252001;55.791667, -133.6
DVL;Devils Lake;Devils Lake;United States;US;48.116667;-98.9;67;5058868;6252001;48.116667, -98.9
TSG;Intermediate;Tanacross;United States;US;45.228056;18.073333;67;\N;6252001;45.228056, 18.073333
OCF;Taylor Field;Ocala;United States;US;29.166667;-82.216667;67;4166673;6252001;29.166667, -82.216667
WCR;Chandalar;Chandalar;United States;US;67.5;-148.5;67;\N;6252001;67.5, -148.5
HPV;Princeville;Kauai Island;United States;US;22.2125;-159.446667;67;\N;6252001;22.2125, -159.446667
ANY;Anthony;Anthony;United States;US;37.15;-98.033333;67;5516368;6252001;37.15, -98.033333
FIC;Fire Cove;Fire Cove;United States;US;55.777778;-131.5375;67;\N;6252001;55.777778, -131.5375
CIK;Chalkyitsik;Chalkyitsik;United States;US;66.65;-143.75;67;\N;6252001;66.65, -143.75
ASY;Ashley;Ashley;United States;US;46.033333;-99.366667;67;5178612;6252001;46.033333, -99.366667
PLR;St Clair County;Pell City;United States;US;33.583333;-86.283333;67;4082589;6252001;33.583333, -86.283333
WLB;Labouchere Bay;Labouchere Bay;United States;US;56.291667;-133.658333;67;\N;6252001;56.291667, -133.658333
ANI;Aniak;Aniak;United States;US;61.583333;-159.533333;67;\N;6252001;61.583333, -159.533333
UOS;Franklin County;Sewanee;United States;US;35.205278;-85.898056;67;4656589;6252001;35.205278, -85.898056
CKX;Chicken;Chicken;United States;US;64.083333;-141.916667;67;\N;6252001;64.083333, -141.916667
DRO;La Plata;Durango;United States;US;37.15;-107.75;67;5420241;6252001;37.15, -107.75
GUN;Gunter AFB;Montgomery;United States;US;51.066667;-1.166667;67;5201752;6252001;51.066667, -1.166667
MLB;Melbourne International Airport;Melbourne;United States;US;28.1;-80.633333;67;4163971;6252001;28.1, -80.633333
WSJ;San Juan SPB;San Juan;United States;US;57.733333;-153.3;67;4726440;6252001;57.733333, -153.3
KAL;Kaltag;Kaltag;United States;US;64.333333;-158.7;67;\N;6252001;64.333333, -158.7
GSP;Greenville Spartanbur Int'l Airport;Greenville;United States;US;34.895556;-82.218889;67;5564488;6252001;34.895556, -82.218889
AKC;Fulton International;Akron/Canton;United States;US;-26.8;23.75;67;5574199;6252001;-26.8, 23.75
STJ;Rosecrans Memorial;St Joseph;United States;US;39.766667;-94.916667;67;\N;6252001;39.766667, -94.916667
FHU;Municipal;Sierra Vista;United States;US;31.588333;-110.344444;67;5314328;6252001;31.588333, -110.344444
RBH;Brooks Lodge;Brooks Lodge;United States;US;58.55;-155.8;67;\N;6252001;58.55, -155.8
RCR;Fulton County;Rochester;United States;US;49.916667;-0.966666999999999;67;5808524;6252001;49.916667, -0.966666999999999
KCQ;Chignik;Chignik;United States;US;56.261111;-158.777778;67;\N;6252001;56.261111, -158.777778
OGS;Ogdensburg;Ogdensburg;United States;US;44.683333;-75.466667;67;5129626;6252001;44.683333, -75.466667
RSP;Raspberry Strait;Raspberry Strait;United States;US;58.166667;-154.833333;67;\N;6252001;58.166667, -154.833333
MZJ;Marana;Marana;United States;US;32.509722;-111.325278;67;5303705;6252001;32.509722, -111.325278
TUL;Tulsa International;Tulsa;United States;US;36.198333;-95.888056;67;4553433;6252001;36.198333, -95.888056
OLE;Municipal;Olean;United States;US;42.233333;-78.366667;67;5129780;6252001;42.233333, -78.366667
LTS;Altus AFB;Altus;United States;US;34.65;-99.35;67;4529292;6252001;34.65, -99.35
ADW;Andrews AFB;Camp Springs;United States;US;38.8;-76.916667;67;4350288;6252001;38.8, -76.916667
EGX;Egegik;Egegik;United States;US;58.216667;-157.366667;67;\N;6252001;58.216667, -157.366667
FXE;Executive;Fort Lauderdale;United States;US;26.183333;-80.166667;1;4155966;6252001;26.183333, -80.166667
KIB;SPB;Ivanof Bay;United States;US;55.9;-159.483333;67;\N;6252001;55.9, -159.483333
HYS;Municipal;Hays;United States;US;38.85;-99.266667;67;4470384;6252001;38.85, -99.266667
VCB;View Cove;View Cove;United States;US;55.080556;-133.016667;67;\N;6252001;55.080556, -133.016667
RNO;Reno-Tahoe International;Reno, NV;United States;US;39.499167;-119.768056;67;5511077;6252001;39.499167, -119.768056
MRK;Marco Island;Marco Island;United States;US;25.933333;-81.716667;67;\N;6252001;25.933333, -81.716667
NUW;Whidbey Island NAS;Oak Harbor;United States;US;48.351667;-122.655833;67;5805441;6252001;48.351667, -122.655833
KAE;SPB;Kake;United States;US;56.966667;-133.95;67;\N;6252001;56.966667, -133.95
FAR;Hector Field;Fargo;United States;US;46.916667;-96.816667;67;5059163;6252001;46.916667, -96.816667
CIR;Cairo;Cairo;United States;US;4.666667;-76.016667;67;5111056;6252001;4.666667, -76.016667
PCU;Pearl River County;Picayune;United States;US;30.516666999999998;-89.705556;67;4440975;6252001;30.516666999999998, -89.705556
WTR;White River;White River;United States;US;33.816667;-109.983333;67;\N;6252001;33.816667, -109.983333
KKU;Ekuk;Ekuk;United States;US;58.816667;-158.55;67;\N;6252001;58.816667, -158.55
DPA;Dupage County;Chicago;United States;US;41.914444;-88.246389;67;4887398;6252001;41.914444, -88.246389
DYL;Doylestown;Doylestown;United States;US;40.316667;-75.133333;67;5187248;6252001;40.316667, -75.133333
RKS;Sweetwater County;Rock Springs;United States;US;41.6;-109.066667;67;5836898;6252001;41.6, -109.066667
ERI;International;Erie;United States;US;42.083333;-80.183333;67;5576859;6252001;42.083333, -80.183333
LWC;Lawrence;Lawrence;United States;US;38.95;-95.283333;67;5124087;6252001;38.95, -95.283333
JUP;Cable Heliport;Upland;United States;US;-32.266667;27.183333;67;5404915;6252001;-32.266667, 27.183333
NLC;Lemoore NAS;Lemoore, CA;United States;US;36.333056;-119.951944;67;5365918;6252001;36.333056, -119.951944
LEB;White River;White River;United States;US;43.633333;-72.316667;67;\N;6252001;43.633333, -72.316667
WOW;Willow;Willow;United States;US;61.75;-150.05;67;5878102;6252001;61.75, -150.05
JDN;Jordan;Jordan;United States;US;47.316667;-106.916667;67;5122893;6252001;47.316667, -106.916667
SCK;Stockton Metropolitan Airport;Stockton;United States;US;37.9;-121.25;67;5399020;6252001;37.9, -121.25
KPC;Port Clarence;Port Clarence;United States;US;65.25;-166.85;67;\N;6252001;65.25, -166.85
DNS;Municipal;Denison;United States;US;41.983333;-95.383333;67;4853757;6252001;41.983333, -95.383333
SAD;Safford;Safford;United States;US;32.85;-109.633333;67;5312476;6252001;32.85, -109.633333
MDW;Midway;Chicago;United States;US;41.783333;-87.75;67;4887398;6252001;41.783333, -87.75
JSG;San Rafael H/P;San Rafael;United States;US;8.45;-73.916667;67;5392567;6252001;8.45, -73.916667
PGC;Grant County;Petersburg;United States;US;39.0;-79.116667;67;5556338;6252001;39.0, -79.116667
DAY;James Cox Dayton Intl;Dayton, Oh;United States;US;39.75;-84.183333;67;6545140;6252001;39.75, -84.183333
RMP;Rampart;Rampart;United States;US;65.5;-150.15;67;\N;6252001;65.5, -150.15
STG;St George Island;St George Island;United States;US;56.6;-169.533333;67;\N;6252001;56.6, -169.533333
ORL;Orlando Executive;Orlando;United States;US;28.533333;-81.35;67;4167147;6252001;28.533333, -81.35
PUB;Memorial;Pueblo;United States;US;38.283333;-104.5;67;5435464;6252001;38.283333, -104.5
CLK;Municipal;Clinton;United States;US;43.6;-81.533333;67;5773001;6252001;43.6, -81.533333
GBG;Galesburg;Galesburg;United States;US;40.933333;-90.433333;67;4993609;6252001;40.933333, -90.433333
VDZ;Municipal;Valdez;United States;US;61.133333;-146.233333;67;5877389;6252001;61.133333, -146.233333
UNK;Unalakleet;Unalakleet;United States;US;63.883333;-160.783333;67;\N;6252001;63.883333, -160.783333
HSI;Hastings;Hastings;United States;US;40.6;-98.433333;67;5192858;6252001;40.6, -98.433333
SYA;Shemya AFB;Shemya;United States;US;52.716667;174.1;67;\N;6252001;52.716667, 174.1
OWD;Memorial;Norwood;United States;US;42.183333;-71.183333;67;5129364;6252001;42.183333, -71.183333
DSM;Des Moines International;Des Moines, IA;United States;US;41.533889;-93.663056;67;5792244;6252001;41.533889, -93.663056
CFK;Chefornak;Chefornak, AK;United States;US;60.149167;-164.285556;67;\N;6252001;60.149167, -164.285556
OMA;Eppley Airfield;Omaha;United States;US;41.3;-95.9;67;5074472;6252001;41.3, -95.9
FBG;Simmons AAF;Fort Bragg;United States;US;19.833333;-72.5;67;5350039;6252001;19.833333, -72.5
SKK;Shaktoolik;Shaktoolik;United States;US;64.383333;-161.1;67;\N;6252001;64.383333, -161.1
WKL;Waikoloa Airport;Waikoloa;United States;US;19.916667;-155.866667;67;\N;6252001;19.916667, -155.866667
EEN;Dillant-Hopkins;Keene;United States;US;42.9;-72.266667;67;5088262;6252001;42.9, -72.266667
EVA;Landing Strip;Evadale;United States;US;30.35;-94.066667;67;4689569;6252001;30.35, -94.066667
MTW;Municipal;Manitowoc;United States;US;44.116667;-87.666667;67;5261585;6252001;44.116667, -87.666667
JGL;Galleria Heliport;Atlanta;United States;US;33.885;-84.462778;67;4883772;6252001;33.885, -84.462778
FPR;St Lucie County;Fort Pierce;United States;US;27.483333;-80.366667;67;4156018;6252001;27.483333, -80.366667
ATU;Casco Cove;Attu Island;United States;US;52.833333;173.183333;67;\N;6252001;52.833333, 173.183333
IFA;Iowa Falls;Iowa Falls;United States;US;42.516667;-93.266667;67;4862069;6252001;42.516667, -93.266667
ACK;Nantucket Memorial;Nantucket;United States;US;41.266667;-70.066667;67;4944903;6252001;41.266667, -70.066667
ELI;Elim;Elim;United States;US;64.616667;-162.266667;67;5188469;6252001;64.616667, -162.266667
DFW;Dallas/Fort Worth International;Dallas, TX;United States;US;32.896944;-97.038056;67;5722064;6252001;32.896944, -97.038056
PTB;Municipal;Petersburg;United States;US;37.183333;-77.516667;67;5556338;6252001;37.183333, -77.516667
SKY;Griffing Sandusky;Sandusky;United States;US;41.433333;-82.7;67;5170691;6252001;41.433333, -82.7
CWO;Ft Wolter AAF;Mineral Wells;United States;US;-5.133333;137.533333;67;4711647;6252001;-5.133333, 137.533333
GWV;Glendale;Glendale;United States;US;-17.360556;31.059722;67;5423075;6252001;-17.360556, 31.059722
SFM;Sanford;Sanford;United States;US;43.383333;-70.7;67;4977762;6252001;43.383333, -70.7
UES;Waukesha;Waukesha;United States;US;43.016667;-88.2;67;5278052;6252001;43.016667, -88.2
EBR;Downtown;Baton Rouge;United States;US;6.45;17.366667;67;4315588;6252001;6.45, 17.366667
JBS;Hacienda Bus.Park H/P;Pleasanton;United States;US;37.699722;-121.9;67;5383777;6252001;37.699722, -121.9
HUL;International;Houlton;United States;US;46.133333;-67.8;67;4967563;6252001;46.133333, -67.8
CHI;Chicago FSS;Chicago;United States;US;41.883056;-87.766111;67;4887398;6252001;41.883056, -87.766111
BEH;Ross Field;Benton Harbor;United States;US;42.133333;-86.433333;67;4985711;6252001;42.133333, -86.433333
HSB;Raleigh;Harrisburg;United States;US;37.733333;-88.55;67;5730389;6252001;37.733333, -88.55
MIB;Minot AFB;Minot;United States;US;47.666667;4.866667;67;5690532;6252001;47.666667, 4.866667
MOX;Municipal;Morris;United States;US;-16.166389;38.721944;67;5038252;6252001;-16.166389, 38.721944
ROL;Roosevelt;Roosevelt;United States;US;40.3;-109.983333;67;5780699;6252001;40.3, -109.983333
SUS;Spirit Of St Louis;St Louis;United States;US;38.662222;-90.651944;67;\N;6252001;38.662222, -90.651944
SSF;Stinson Municipal;San Antonio;United States;US;6.233333;-76.733333;67;4726206;6252001;6.233333, -76.733333
MIO;Miami;Miami;United States;US;10.016667;-73.65;67;5304640;6252001;10.016667, -73.65
AHC;Amedee AAF;Herlong;United States;US;60.572222;4.951667;67;\N;6252001;60.572222, 4.951667
ZRK;VanGalder Bus Termina;Rockford;United States;US;-32.85;24.166667;67;5168451;6252001;-32.85, 24.166667
PPF;Tri-City;Parsons;United States;US;37.333333;-95.5;67;4817695;6252001;37.333333, -95.5
LKP;Lake Placid;Lake Placid;United States;US;44.264444;-73.961944;67;5123831;6252001;44.264444, -73.961944
SBT;Tri-City;San Bernardino;United States;US;34.1;-117.266667;67;5391710;6252001;34.1, -117.266667
FLO;Florence;Florence;United States;US;34.183333;-79.716667;67;5727032;6252001;34.183333, -79.716667
MXY;Mccarthy;Mccarthy;United States;US;61.416667;-142.916667;67;\N;6252001;61.416667, -142.916667
CHK;Municipal;Chickasha;United States;US;35.033333;-97.966667;67;4533029;6252001;35.033333, -97.966667
EMM;Kemerer;Kemerer;United States;US;41.85;-110.55;67;\N;6252001;41.85, -110.55
KKT;Kentland;Kentland;United States;US;40.766667;-87.45;67;4922267;6252001;40.766667, -87.45
LYH;Preston-Glenn Field;Lynchburg;United States;US;37.333333;-79.2;67;4771075;6252001;37.333333, -79.2
MDN;Jefferson Proving Grd;Madison;United States;US;38.733333;-85.366667;67;5261457;6252001;38.733333, -85.366667
MRN;Lenoir;Morganton;United States;US;35.75;-81.725;67;4480219;6252001;35.75, -81.725
FMC;Five Mile;Five Mile;United States;US;65.916667;-149.833333;67;\N;6252001;65.916667, -149.833333
THV;York Airport;York;United States;US;48.75;-64.583333;67;5082331;6252001;48.75, -64.583333
JLH;US Army Heliport;Arlington Heights;United States;US;-6.3;155.833333;67;5785858;6252001;-6.3, 155.833333
BWM;Bowman;Bowman;United States;US;46.133333;-103.583333;67;5688127;6252001;46.133333, -103.583333
DGW;Converse County;Douglas;United States;US;42.75;-105.4;67;5823516;6252001;42.75, -105.4
WWR;West Woodward;Woodward;United States;US;36.433333;-99.516667;67;4882453;6252001;36.433333, -99.516667
VAD;Moody AFB;Valdosta;United States;US;46.286111;12.437778;67;4228147;6252001;46.286111, 12.437778
GLD;Renner Field;Goodland;United States;US;39.366667;-101.7;67;5445479;6252001;39.366667, -101.7
GLS;Scholes Field;Galveston;United States;US;29.266666999999998;-94.866667;67;4920577;6252001;29.266666999999998, -94.866667
ICT;Mid-Continent;Wichita;United States;US;37.65;-97.433333;67;4281730;6252001;37.65, -97.433333
MSD;Mt Pleasant;Mt Pleasant;United States;US;39.524722;-111.474444;67;\N;6252001;39.524722, -111.474444
PSK;New River Valley;Dublin;United States;US;37.116667;-80.683333;67;5344157;6252001;37.116667, -80.683333
VSF;State;Springfield;United States;US;43.333333;-72.516667;67;5754005;6252001;43.333333, -72.516667
ATY;Watertown;Watertown;United States;US;44.916667;-97.15;67;5278005;6252001;44.916667, -97.15
CCY;Municipal;Charles City;United States;US;43.066667;-92.666667;67;4851163;6252001;43.066667, -92.666667
AIZ;Lee C Fine Memorial;Kaiser/Lake Ozark;United States;US;38.1;-92.55;67;\N;6252001;38.1, -92.55
BRO;South Padre Is. Intl;Brownsville;United States;US;25.916667;-97.416667;67;5716061;6252001;25.916667, -97.416667
GPT;Gulfport-Biloxi International;Gulfport;United States;US;30.4;-89.066667;67;4428667;6252001;30.4, -89.066667
JNU;Boundary Bay;Juneau;United States;US;58.35;-134.583333;67;5554072;6252001;58.35, -134.583333
OPL;St Landry Parish;Opelousas;United States;US;30.55;-92.1;67;4336153;6252001;30.55, -92.1
UQE;Queen;Queen;United States;US;58.883333;-158.5;67;\N;6252001;58.883333, -158.5
PTW;Pottstown/Limerick;Pottstown;United States;US;40.233333;-75.65;67;5207069;6252001;40.233333, -75.65
SLJ;Stellar Air Park;Chandler;United States;US;33.319444;-111.9;67;5289282;6252001;33.319444, -111.9
UMT;Umiat;Umiat;United States;US;69.366667;-152.133333;67;\N;6252001;69.366667, -152.133333
EGE;Eagle County;Vail/Eagle;United States;US;39.633333;-106.916667;67;5442727;6252001;39.633333, -106.916667
EDF;Elmendorf Afb;Anchorage;United States;US;61.251389;-149.806389;67;5879400;6252001;61.251389, -149.806389
GBO;Baltimore Greenbelt T;Baltimore;United States;US;39.186111;-76.683333;67;4505716;6252001;39.186111, -76.683333
PTS;Municipal;Pittsburg;United States;US;37.45;-94.733333;67;5383465;6252001;37.45, -94.733333
CTB;Cut Bank;Cut Bank;United States;US;48.633333;-112.333333;67;5647469;6252001;48.633333, -112.333333
AUW;Municipal;Wausau;United States;US;44.766667;-89.680556;67;5278120;6252001;44.766667, -89.680556
ORF;Norfolk International Airport;Norfolk;United States;US;36.9;-76.2;67;5128862;6252001;36.9, -76.2
CEF;Westover Metro Arpt;Springfield;United States;US;44.633333;-64.85;67;5754005;6252001;44.633333, -64.85
HTL;Roscommon County;Houghton;United States;US;52.333333;-1.716667;67;5121382;6252001;52.333333, -1.716667
SCE;University Park;State College;United States;US;40.772222;-77.883333;67;5213681;6252001;40.772222, -77.883333
SYV;Sylvester;Sylvester;United States;US;31.516666999999998;-83.833333;67;4225522;6252001;31.516666999999998, -83.833333
BKW;Beckley;Beckley;United States;US;37.783333;-81.116667;67;4798308;6252001;37.783333, -81.116667
LXV;Leadville;Leadville;United States;US;39.333333;-106.5;67;5428184;6252001;39.333333, -106.5
MWM;Windom Municipal;Windom, MN;United States;US;43.913333;-95.109444;67;5053084;6252001;43.913333, -95.109444
FYM;Municipal;Fayetteville;United States;US;35.15;-86.583333;67;5116968;6252001;35.15, -86.583333
MCF;Mac Dill AFB;Tampa;United States;US;54.433333;23.65;67;4174757;6252001;54.433333, 23.65
LAS;Mc Carran Intl;Las Vegas;United States;US;36.083333;-115.166667;67;5506956;6252001;36.083333, -115.166667
RDU;Raleigh-durham International Airport;Raleigh/Durham, NC;United States;US;35.877778;-78.7875;67;4487042;6252001;35.877778, -78.7875
FFT;Capital City;Frankfort, KY;United States;US;38.198611;-84.906111;67;5117856;6252001;38.198611, -84.906111
OGB;Municipal;Orangeburg;United States;US;33.45;-80.85;67;5129923;6252001;33.45, -80.85
CIG;Craig-Moffat;Craig;United States;US;40.5;-107.583333;67;5845544;6252001;40.5, -107.583333
HYG;SPB;Hydaburg;United States;US;55.2;-132.833333;67;\N;6252001;55.2, -132.833333
PVU;Provo;Provo;United States;US;40.233333;-111.716667;67;5780026;6252001;40.233333, -111.716667
MLK;Malta;Malta;United States;US;48.35;-107.866667;67;5664486;6252001;48.35, -107.866667
AMK;Animas Airpark;Durango;United States;US;14.466667;-87.85;67;5420241;6252001;14.466667, -87.85
ZTL;Bus Station;Telluride;United States;US;42.095278;8.709722;67;5441199;6252001;42.095278, 8.709722
ALS;Municipal;Alamosa;United States;US;37.433333;-105.866667;67;5411479;6252001;37.433333, -105.866667
ZTN;Trenton Rail STN;Philadelphia;United States;US;29.483333;31.066667;67;5131095;6252001;29.483333, 31.066667
DPK;Deer Park;Deer Park;United States;US;40.766667;-73.333333;67;5792143;6252001;40.766667, -73.333333
DBS;Dubois;Dubois;United States;US;44.166667;-112.233333;67;\N;6252001;44.166667, -112.233333
SKF;Kelly AFB;San Antonio;United States;US;6.233333;-76.733333;67;4726206;6252001;6.233333, -76.733333
AEX;Alexandria International;Alexandria, LA;United States;US;31.3275;-92.548611;67;5082573;6252001;31.3275, -92.548611
GDH;Golden Horn Lodge SPB;Golden Horn Lodge, Alaska;United States;US;59.746944;-158.874722;67;\N;6252001;59.746944, -158.874722
DYS;Dyess AFB;Abilene;United States;US;54.1075;-1.483611;67;4669635;6252001;54.1075, -1.483611
KQA;Akutan;Akutan;United States;US;54.116667;-165.75;67;\N;6252001;54.116667, -165.75
MHV;Kern County;Mojave;United States;US;35.483333;-118.2;67;5373965;6252001;35.483333, -118.2
RRL;Municipal;Merrill;United States;US;-34.683333;149.216667;67;5262680;6252001;-34.683333, 149.216667
BKF;Lake Brooks SPB;Katmai National Park;United States;US;58.554722;-155.7775;67;\N;6252001;58.554722, -155.7775
BTP;Butler County - Kenny Scholter Field;Butler;United States;US;40.793611;-79.949722;67;5247307;6252001;40.793611, -79.949722
MGR;Moultrie Municipal;Moultrie;United States;US;31.083333;-83.8;67;4210397;6252001;31.083333, -83.8
NNK;Naknek;Naknek;United States;US;58.75;-156.533333;67;\N;6252001;58.75, -156.533333
BED;Hanscom Field;Bedford/Hanscom;United States;US;42.466667;-71.283333;67;5179630;6252001;42.466667, -71.283333
MHN;Mullen;Mullen;United States;US;42.05;-101.066667;67;\N;6252001;42.05, -101.066667
FMS;Municipal;Fort Madison;United States;US;40.65;-91.316667;67;4857507;6252001;40.65, -91.316667
RIR;Riverside Fla-Bob;Riverside;United States;US;-29.666667;30.016667;67;5387877;6252001;-29.666667, 30.016667
ANN;Annette Island;Annette Island;United States;US;55.033333;-131.566667;67;\N;6252001;55.033333, -131.566667
VNY;Van Nuys;Los Angeles, CA;United States;US;34.209722;-118.49;67;5368361;6252001;34.209722, -118.49
RWL;Rawlins;Rawlins;United States;US;41.8;-107.2;67;5836068;6252001;41.8, -107.2
MKT;Municipal;Mankato;United States;US;44.15;-93.983333;67;5036420;6252001;44.15, -93.983333
BBC;Bay City;Bay City;United States;US;28.983333;-95.966667;67;5712837;6252001;28.983333, -95.966667
MEV;Douglas County;Minden;United States;US;39.0;-119.75;67;5508379;6252001;39.0, -119.75
EAN;Phifer Field;Wheatland;United States;US;42.058333;-104.919444;67;5842753;6252001;42.058333, -104.919444
UIZ;Berz-Macomb;Utica;United States;US;37.066667;10.066667;67;5174913;6252001;37.066667, 10.066667
LXN;Lexington;Lexington;United States;US;40.783333;-99.75;67;5160635;6252001;40.783333, -99.75
DLO;Dolomi;Dolomi;United States;US;55.133333;-132.051389;67;\N;6252001;55.133333, -132.051389
CRG;Craig Municipal;Jacksonville;United States;US;30.333889;-81.5025;67;5733409;6252001;30.333889, -81.5025
FET;Municipal;Fremont;United States;US;41.433333;-96.5;67;5350734;6252001;41.433333, -96.5
FRY;Fryeburg;Fryeburg;United States;US;44.016667;-70.983333;67;4964996;6252001;44.016667, -70.983333
UBS;Lowndes County;Columbus;United States;US;33.449722;-88.365833;67;5645893;6252001;33.449722, -88.365833
ADQ;Kodiak Airport;Kodiak;United States;US;57.75;-152.483333;67;5866583;6252001;57.75, -152.483333
FLD;Fond Du Lac;Fond Du Lac;United States;US;43.766667;-88.483333;67;5253352;6252001;43.766667, -88.483333
SEM;Craig AFB;Selma;United States;US;-12.2;96.916667;67;5394329;6252001;-12.2, 96.916667
MLC;Mc Alester;Mc Alester;United States;US;34.883333;-95.783333;67;\N;6252001;34.883333, -95.783333
SEP;Clark Field;Stephenville;United States;US;32.216667;-98.183333;67;4734350;6252001;32.216667, -98.183333
KLP;Kelp Bay;Kelp Bay;United States;US;57.558333;-134.866667;67;\N;6252001;57.558333, -134.866667
BNL;Barnwell Regional;Barnwell, SC;United States;US;33.257778;-81.388333;67;4570015;6252001;33.257778, -81.388333
LFI;Langley AFB;Hampton;United States;US;52.166667;-2.016667;67;5098787;6252001;52.166667, -2.016667
SGY;Municipal;Skagway;United States;US;59.483333;-135.3;67;\N;6252001;59.483333, -135.3
GLR;Otsego County;Gaylord;United States;US;45.016667;-84.7;67;5027765;6252001;45.016667, -84.7
BLM;Monmouth Executive Airport;Belmar - Farmingdale;United States;US;40.185556;-74.123611;67;\N;6252001;40.185556, -74.123611
YIP;Willow Run;Detroit, MI;United States;US;42.25;-83.383333;67;4990729;6252001;42.25, -83.383333
WRL;Worland;Worland, WY;United States;US;43.965833;-107.884167;67;5843495;6252001;43.965833, -107.884167
IVH;Ivishak;Ivishak;United States;US;69.4;-148.25;67;\N;6252001;69.4, -148.25
CSV;Memorial;Crossville;United States;US;35.95;-85.083333;67;4616470;6252001;35.95, -85.083333
RSH;Russian SPB;Russian Mission;United States;US;61.783333;-161.333333;67;\N;6252001;61.783333, -161.333333
HLN;Helena;Helena;United States;US;46.6;-111.983333;67;5656882;6252001;46.6, -111.983333
DUG;Bisbee-Douglas Intl;Douglas;United States;US;31.466667;-109.6;67;5823516;6252001;31.466667, -109.6
HNB;Municipal;Huntingburg;United States;US;38.3;-86.95;67;4259271;6252001;38.3, -86.95
SMN;Salmon;Salmon;United States;US;45.183333;-113.916667;67;5606275;6252001;45.183333, -113.916667
PIA;Greater Peoria;Peoria, IL;United States;US;40.666667;-89.683333;67;5308480;6252001;40.666667, -89.683333
TRI;Tri-cities Regional;Blountville;United States;US;36.475278;-82.4075;67;4607201;6252001;36.475278, -82.4075
KTN;International;Ketchikan;United States;US;55.333333;-131.65;67;5554428;6252001;55.333333, -131.65
HCB;Shoal Cove;Shoal Cove;United States;US;55.458333;-131.283333;67;\N;6252001;55.458333, -131.283333
DLN;Dillon;Dillon;United States;US;45.216667;-112.633333;67;5648657;6252001;45.216667, -112.633333
SLE;Mcnary Field;Salem;United States;US;44.916667;-123.0;67;5750162;6252001;44.916667, -123.0
CEM;Central;Central;United States;US;65.566667;-144.783333;67;4612476;6252001;65.566667, -144.783333
WSB;SPB;Steamboat Bay;United States;US;55.55;-133.633333;67;\N;6252001;55.55, -133.633333
APT;Marion County;Jasper;United States;US;35.066667;-85.633333;67;4700731;6252001;35.066667, -85.633333
DTH;Death Valley;Death Valley;United States;US;36.452222;-116.869167;67;\N;6252001;36.452222, -116.869167
WEA;Parker County;Weatherford;United States;US;32.75;-97.783333;67;4740364;6252001;32.75, -97.783333
BLD;Boulder City;Boulder City;United States;US;8.734444;-9.798611;67;5500539;6252001;8.734444, -9.798611
CKE;Clear Lake;Clear Lake;United States;US;39.033333;-122.833333;67;5790270;6252001;39.033333, -122.833333
LRO;Sharpe AAF;Lathrop;United States;US;36.702778;26.955;67;5365425;6252001;36.702778, 26.955
KWN;Kwinhagak;Quinhagak;United States;US;59.75;-161.916667;67;\N;6252001;59.75, -161.916667
SXP;Sheldon SPB;Sheldon Point;United States;US;62.533333;-164.833333;67;\N;6252001;62.533333, -164.833333
TEB;Teterboro;Teterboro;United States;US;40.85;-74.060833;67;\N;6252001;40.85, -74.060833
OLS;International;Nogales;United States;US;31.333333;-110.933333;67;5306611;6252001;31.333333, -110.933333
ELN;Bowers Field;Ellensburg;United States;US;47.033333;-120.533333;67;5793639;6252001;47.033333, -120.533333
JDA;John Day;John Day;United States;US;44.416667;-118.95;67;5733770;6252001;44.416667, -118.95
DFI;Memorial;Defiance;United States;US;41.283333;-84.366667;67;5151861;6252001;41.283333, -84.366667
PGV;Pitt-Greenville;Greenville;United States;US;35.633333;-77.4;67;5564488;6252001;35.633333, -77.4
MYR;Myrtle Beach Afb;Myrtle Beach;United States;US;33.7;-78.966667;67;4588718;6252001;33.7, -78.966667
HON;Howes;Huron;United States;US;44.383333;-98.233333;67;5358769;6252001;44.383333, -98.233333
RTN;Crews Field;Raton;United States;US;36.733333;-104.5;67;5486795;6252001;36.733333, -104.5
MIC;Crystal;Minneapolis;United States;US;45.061944;-93.353889;67;5037649;6252001;45.061944, -93.353889
LRU;Municipal;Las Cruces, NM;United States;US;32.3;-106.933333;67;5475352;6252001;32.3, -106.933333
NGZ;NAS;Alameda;United States;US;49.266667;-1.283333;67;5322737;6252001;49.266667, -1.283333
MQW;Telfair-Wheeler;Mc Rae;United States;US;17.366667;-88.766667;67;\N;6252001;17.366667, -88.766667
MIW;Municipal;Marshalltown;United States;US;42.116667;-92.916667;67;4866371;6252001;42.116667, -92.916667
ILM;Wilmington International;Wilmington;United States;US;34.270556;-77.9025;67;4955840;6252001;34.270556, -77.9025
RME;Griffiss AFB;Rome, NY;United States;US;43.233889;-75.406944;67;5134295;6252001;43.233889, -75.406944
MWC;Lawrence J Timmerman;Milwaukee;United States;US;43.110278;-88.034167;67;5263045;6252001;43.110278, -88.034167
TUS;Tucson International Airport;Tucson, AZ;United States;US;32.116111;-110.941111;67;5318313;6252001;32.116111, -110.941111
TRP;Coast Guard Heliport;Tree Point;United States;US;39.983333;25.266666999999998;67;\N;6252001;39.983333, 25.266666999999998
NPT;State;Newport;United States;US;41.6;-71.416667;67;5804694;6252001;41.6, -71.416667
ENL;Municipal;Centralia;United States;US;38.516667;-89.091667;67;5789683;6252001;38.516667, -89.091667
TKJ;Tok;Tok;United States;US;53.333333;6.35;67;5876363;6252001;53.333333, 6.35
CFV;Municipal;Coffeyville;United States;US;17.533333;-88.166667;67;4269789;6252001;17.533333, -88.166667
AID;Municipal;Anderson;United States;US;32.4;34.866667;67;5558857;6252001;32.4, 34.866667
OWB;Daviess County;Owensboro;United States;US;37.75;-87.166667;67;4303436;6252001;37.75, -87.166667
JCC;China Basin Heliport;San Francisco;United States;US;-38.7;-60.016667;67;5391959;6252001;-38.7, -60.016667
SGT;Stuttgart Municipal;Stuttgart, AR;United States;US;34.599444;-91.575;67;4132625;6252001;34.599444, -91.575
DGL;Douglas Municipal;Douglas;United States;US;12.616667;14.983333;67;5823516;6252001;12.616667, 14.983333
CDV;Mudhole Smith;Cordova;United States;US;60.483333;-145.483333;67;5859888;6252001;60.483333, -145.483333
MFI;Municipal;Marshfield;United States;US;44.6375;-90.188889;67;5261969;6252001;44.6375, -90.188889
EWR;Newark Liberty International;Newark;United States;US;40.6925;-74.168611;21;5376803;6252001;40.6925, -74.168611
RSJ;Rosario SPB;Rosario;United States;US;48.633333;-122.85;67;\N;6252001;48.633333, -122.85
NAX;Barbers Point;Barbers Point;United States;US;18.433333;-72.383333;67;\N;6252001;18.433333, -72.383333
SBN;South Bend Regional;South Bend;United States;US;41.7;-86.316667;67;5811211;6252001;41.7, -86.316667
ROG;Rogers;Rogers;United States;US;36.333333;-94.116667;67;5043608;6252001;36.333333, -94.116667
SYL;Roberts AAF;San Miguel;United States;US;80.0;-75.866667;67;5392448;6252001;80.0, -75.866667
YUM;International;Yuma;United States;US;32.65;-114.6;67;5583657;6252001;32.65, -114.6
MVW;Skagit Regional;Mount Vernon;United States;US;48.416667;-122.333333;67;5804127;6252001;48.416667, -122.333333
RMG;Richard B Russell;Rome;United States;US;34.35;-85.166667;67;5134295;6252001;34.35, -85.166667
LNP;Wise;Wise;United States;US;36.983333;-82.566667;67;4829341;6252001;36.983333, -82.566667
SES;Selfield;Selma;United States;US;32.45;-86.95;67;5394329;6252001;32.45, -86.95
0A7;Hendersonville Airport;Hendersonville;United States;US;35.316667;-82.45;67;4628735;6252001;35.316667, -82.45
CNE;Canon City;Canon City;United States;US;38.416667;-105.1;67;5416005;6252001;38.416667, -105.1
MFV;Accomack County;Melfa;United States;US;13.633333;39.133333;67;\N;6252001;13.633333, 39.133333
FLL;Fort Lauderdale/hollywood International;Fort Lauderdale, FL;United States;US;26.0725;-80.152778;67;4155966;6252001;26.0725, -80.152778
HNM;Hana;Hana;United States;US;20.8;-156.016667;67;\N;6252001;20.8, -156.016667
TCL;Van De Graaf;Tuscaloosa, AL;United States;US;33.220556;-87.611389;67;4094455;6252001;33.220556, -87.611389
LGA;La Guardia;New York;United States;US;40.766667;-73.866667;67;5128581;6252001;40.766667, -73.866667
HPY;Baytown;Baytown;United States;US;29.733333000000002;-94.966667;67;4672731;6252001;29.733333000000002, -94.966667
MXE;Maxton;Maxton;United States;US;34.733333;-79.35;67;4478372;6252001;34.733333, -79.35
KCC;Coffman Cove SPB;Coffman Cove;United States;US;56.0;-132.833333;67;\N;6252001;56.0, -132.833333
BHM;Birmingham;Birmingham;United States;US;33.566667;-86.75;67;4986172;6252001;33.566667, -86.75
RLA;National;Rolla;United States;US;38.133333;-91.783333;67;5061159;6252001;38.133333, -91.783333
FBK;Ft Wainwright;Fairbanks;United States;US;-32.533333;26.7;67;5861897;6252001;-32.533333, 26.7
ICY;Icy Bay;Icy Bay;United States;US;59.983333;-141.65;67;\N;6252001;59.983333, -141.65
NDP;Ellyson NAS;Pensacola, FL;United States;US;30.526944;-87.198056;67;4168228;6252001;30.526944, -87.198056
BLH;Blythe;Blythe;United States;US;33.616667;-114.716667;67;5329649;6252001;33.616667, -114.716667
NSE;Whiting Field NAS;Milton;United States;US;43.516667;-79.883333;67;5803556;6252001;43.516667, -79.883333
BLV;Belleville;Belleville;United States;US;44.166667;-77.383333;67;5245354;6252001;44.166667, -77.383333
SUW;Richard I Bong Arpt;Superior;United States;US;46.733333;-92.166667;67;5440838;6252001;46.733333, -92.166667
FAI;Fairbanks International Airport;Fairbanks;United States;US;64.816667;-147.866667;67;5861897;6252001;64.816667, -147.866667
CAO;Clayton;Clayton;United States;US;36.45;-103.183333;67;5462269;6252001;36.45, -103.183333
SIT;Sitka;Sitka;United States;US;57.066667;-135.35;67;5557293;6252001;57.066667, -135.35
LKK;Kulik Lake;Kulik Lake;United States;US;58.966667;-155.083333;67;\N;6252001;58.966667, -155.083333
CKA;Kegelman Af;Cherokee;United States;US;26.283333;-77.033333;67;4851247;6252001;26.283333, -77.033333
CLR;Calipatria;Calipatria;United States;US;33.133333;-115.516667;67;5332929;6252001;33.133333, -115.516667
DIO;Diomede Island;Diomede Island;United States;US;65.75;-168.95;67;\N;6252001;65.75, -168.95
TPA;Tampa International;Tampa;United States;US;27.975556;-82.533056;67;4174757;6252001;27.975556, -82.533056
CHO;Albemarle;Charlottesville;United States;US;38.133333;-78.45;67;4752031;6252001;38.133333, -78.45
KLN;Larsen SPB;Larsen Bay;United States;US;57.533333;-154.0;67;\N;6252001;57.533333, -154.0
EMP;Emporia;Emporia;United States;US;38.333333;-96.183333;67;4757673;6252001;38.333333, -96.183333
AMA;Rick Husband Amarillo International;Amarillo, TX;United States;US;35.226389;-101.705833;67;5516233;6252001;35.226389, -101.705833
DWH;David Wayne Hooks;Houston;United States;US;30.061944;-95.552778;67;5864312;6252001;30.061944, -95.552778
LWB;Greenbrier Valley;Lewisburg;United States;US;37.783333;-80.336111;67;5197842;6252001;37.783333, -80.336111
FDY;Findlay;Findlay;United States;US;41.016667;-83.666667;67;5153924;6252001;41.016667, -83.666667
SPZ;Springdale Muni;Springdale;United States;US;36.183333;-94.133333;67;5213447;6252001;36.183333, -94.133333
HUD;Humboldt;Humboldt;United States;US;42.733333;-94.216667;67;4861335;6252001;42.733333, -94.216667
SNA;John Wayne;Santa Ana, CA;United States;US;33.666667;-117.866667;67;5392900;6252001;33.666667, -117.866667
LEW;Auburn;Lewiston;United States;US;44.05;-70.283333;67;5777244;6252001;44.05, -70.283333
RCP;Cinder River;Cinder River;United States;US;-4.733333;12.65;67;\N;6252001;-4.733333, 12.65
ONM;Socorro;Socorro;United States;US;34.05;-106.883333;67;5530932;6252001;34.05, -106.883333
DAB;Regional;Daytona Beach;United States;US;29.183333;-81.05;67;4152872;6252001;29.183333, -81.05
AXG;Algona;Algona;United States;US;43.066667;-94.233333;67;5785484;6252001;43.066667, -94.233333
OKM;Okmulgee;Okmulgee;United States;US;35.616667;-95.966667;67;4544383;6252001;35.616667, -95.966667
UWA;Ware;Ware;United States;US;42.25;-72.233333;67;4954477;6252001;42.25, -72.233333
IAN;Bob Barker Memorial;Kiana;United States;US;66.983333;-160.416667;67;\N;6252001;66.983333, -160.416667
BTN;Bennettsville;Bennettsville;United States;US;34.616667;-79.683333;67;4570634;6252001;34.616667, -79.683333
ENN;Municipal;Nenana;United States;US;64.55;-149.083333;67;\N;6252001;64.55, -149.083333
CPM;Compton;Compton, CA;United States;US;33.89;-118.243611;67;5339066;6252001;33.89, -118.243611
SER;Freeman Municipal;Seymour;United States;US;38.95;-85.883333;67;5272776;6252001;38.95, -85.883333
LIV;Livengood;Livengood, AK;United States;US;65.4725;-148.669167;67;\N;6252001;65.4725, -148.669167
ELV;Elfin Cove SPB;Elfin Cove;United States;US;58.183333;-136.316667;67;\N;6252001;58.183333, -136.316667
WDR;Winder;Winder;United States;US;33.983333;-83.666667;67;4231523;6252001;33.983333, -83.666667
ATS;Artesia;Artesia;United States;US;32.85;-104.466667;67;5455796;6252001;32.85, -104.466667
WLN;Little Naukati;Little Naukati;United States;US;55.866667;-133.216667;67;\N;6252001;55.866667, -133.216667
END;Vance Afb;Enid;United States;US;36.339167;-97.916389;67;4535961;6252001;36.339167, -97.916389
GPZ;Grand Rapids;Grand Rapids;United States;US;47.216667;-93.516667;67;5028537;6252001;47.216667, -93.516667
ZTF;Stamford Rail STN;Westchester County;United States;US;21.65;-72.466667;67;\N;6252001;21.65, -72.466667
MTO;Coles County Memorial;Mattoon;United States;US;39.483333;-88.283333;67;4244099;6252001;39.483333, -88.283333
ECG;Elizabeth City;Elizabeth City, NC;United States;US;36.260556;-76.174444;67;4465088;6252001;36.260556, -76.174444
BKC;Buckland;Buckland;United States;US;65.983333;-161.166667;67;4931627;6252001;65.983333, -161.166667
PBG;Plattsburgh International;Plattsburgh;United States;US;44.650833;73.468056;67;5131692;6252001;44.650833, 73.468056
SAR;Sparta Community;Sparta;United States;US;38.116667;-89.7;67;5273927;6252001;38.116667, -89.7
FBS;Friday Harbor SPB;Friday Harbor SPB;United States;US;-28.033333;115.6;67;\N;6252001;-28.033333, 115.6
VQQ;Cecil Field;Jacksonville;United States;US;30.218611;-81.876667;67;5733409;6252001;30.218611, -81.876667
PHP;Philip;Philip;United States;US;44.033333;-101.65;67;\N;6252001;44.033333, -101.65
CDL;Candle;Candle;United States;US;65.9;-161.916667;67;\N;6252001;65.9, -161.916667
GAB;Gabbs;Gabbs;United States;US;38.866667;-117.916667;67;\N;6252001;38.866667, -117.916667
TTO;Municipal;Britton;United States;US;45.8;-97.75;67;5226523;6252001;45.8, -97.75
TDO;Winlock;Toledo;United States;US;6.533333;-75.783333;67;5757007;6252001;6.533333, -75.783333
ESC;Delta County Arpt;Escanaba;United States;US;45.722778;-87.093611;67;4992232;6252001;45.722778, -87.093611
BOF;Bolling AFB;Washington;United States;US;49.0;-72.5;67;5549222;6252001;49.0, -72.5
FDR;Municipal;Frederick;United States;US;34.35;-98.983333;67;5577217;6252001;34.35, -98.983333
CHS;Charleston, AFB Municipal;Charleston, SC;United States;US;32.898611;-80.040556;67;4960682;6252001;32.898611, -80.040556
EUE;Eureka;Eureka;United States;US;39.516667;-115.966667;67;5651208;6252001;39.516667, -115.966667
MEJ;Meadville;Meadville;United States;US;41.619444;-80.2;67;5200644;6252001;41.619444, -80.2
PHD;Harry Clever;New Philadelphia;United States;US;40.466667;-81.433333;67;5203246;6252001;40.466667, -81.433333
ABY;Dougherty County;Albany;United States;US;31.533333;-84.2;67;5710756;6252001;31.533333, -84.2
PRX;Cox Field;Paris;United States;US;33.633333;-95.45;67;4974617;6252001;33.633333, -95.45
MIT;Kern County;Shafter;United States;US;35.5;-119.266667;67;5394842;6252001;35.5, -119.266667
PHT;Henry County;Paris;United States;US;36.333333;-88.383333;67;4974617;6252001;36.333333, -88.383333
SLC;Salt Lake City International;Salt Lake City, UT;United States;US;40.788333;-111.966667;67;5780993;6252001;40.788333, -111.966667
SPA;Spartanburg, Downtown Memorial;Spartanburg, SC;United States;US;34.915833;-81.956389;67;4597200;6252001;34.915833, -81.956389
NEA;Brunswick Golden Isles;Glynco;United States;US;51.679444;-3.628056;67;\N;6252001;51.679444, -3.628056
HLG;Ohio County;Wheeling;United States;US;16.196389;122.103611;67;5280854;6252001;16.196389, 122.103611
PFA;Paf Warren;Paf Warren;United States;US;58.681389;-156.8375;67;\N;6252001;58.681389, -156.8375
PLK;M Graham Clark;Branson/point Lookout;United States;US;36.616667;-93.216667;67;4378219;6252001;36.616667, -93.216667
GRB;Austin-straubel Field;Green Bay;United States;US;44.483333;-88.133333;67;5254962;6252001;44.483333, -88.133333
BAR;Baker Aaf;Baker Island;United States;US;0.216667;-176.516667;67;\N;6252001;0.216667, -176.516667
KKB;SPB;Kitoi Bay;United States;US;58.183333;-152.35;67;\N;6252001;58.183333, -152.35
BKD;Stephens County;Breckenridge;United States;US;32.75;-98.9;67;5414872;6252001;32.75, -98.9
BDR;Igor I. Sikorsky Mem.;Bridgeport;United States;US;41.166667;-73.133333;67;5788111;6252001;41.166667, -73.133333
BSZ;Bartletts;Bartletts;United States;US;58.266667;-157.483333;67;\N;6252001;58.266667, -157.483333
SVA;Savoonga;Savoonga;United States;US;62.7;-170.466667;67;\N;6252001;62.7, -170.466667
PSM;Pease International;Portsmouth, NH;United States;US;43.078056;-70.823333;67;5224082;6252001;43.078056, -70.823333
SAC;Executive;Sacramento;United States;US;38.516667;-121.483333;67;5389489;6252001;38.516667, -121.483333
MXC;San Juan County;Monticello;United States;US;37.866667;-109.35;67;5543377;6252001;37.866667, -109.35
MOR;Moore-Murrell;Morristown;United States;US;36.183333;-83.366667;67;5238755;6252001;36.183333, -83.366667
MIF;Roy Hurd Memorial;Monahans;United States;US;31.6;-102.9;67;5526514;6252001;31.6, -102.9
FNT;Bishop International Airport;Flint;United States;US;42.965556;-83.743611;67;4992982;6252001;42.965556, -83.743611
PMX;Metropolitan;Palmer;United States;US;42.15;-72.316667;67;5871146;6252001;42.15, -72.316667
PAQ;Municipal;Palmer;United States;US;61.6;-149.116667;67;5871146;6252001;61.6, -149.116667
CCR;Buchanan Fld;Concord;United States;US;37.983333;-122.052778;67;5339111;6252001;37.983333, -122.052778
RBL;Red Bluff Fss;Red Bluff;United States;US;40.15;-122.25;67;5570065;6252001;40.15, -122.25
CAE;Metropolitan Airport;Columbia, SC;United States;US;33.95;-81.116667;67;5338800;6252001;33.95, -81.116667
KXA;Kasaan SPB;Kasaan;United States;US;55.5;-132.5;67;\N;6252001;55.5, -132.5
LTW;St Marys County;Leonardtown;United States;US;38.283333;-77.633333;67;4360551;6252001;38.283333, -77.633333
RGR;Ranger Municipal;Ranger;United States;US;32.466667;-98.683333;67;4721504;6252001;32.466667, -98.683333
LIC;Municipal;Limon;United States;US;39.266667;-103.683333;67;5428504;6252001;39.266667, -103.683333
KBW;Chignik Bay;Chignik;United States;US;56.296389;-158.399444;67;\N;6252001;56.296389, -158.399444
KCG;Fisheries;Chignik;United States;US;56.3;-158.4;67;\N;6252001;56.3, -158.4
DLS;Columbia Gorge Regional/The Dalles Municipal Airport;The Dalles;United States;US;45.618611;-121.167222;67;5756304;6252001;45.618611, -121.167222
CSQ;Municipal;Creston;United States;US;41.066667;-94.366667;67;5151415;6252001;41.066667, -94.366667
PBF;Grider Field;Pine Bluff;United States;US;34.183333;-91.933333;67;4126226;6252001;34.183333, -91.933333
HDE;Brewster Field;Holdrege;United States;US;40.433333;-99.366667;67;5070216;6252001;40.433333, -99.366667
MLY;Manley Hot Springs;Manley Hot Springs;United States;US;65.0;-150.633333;67;\N;6252001;65.0, -150.633333
WAH;Wahpeton;Wahpeton;United States;US;46.266667;-96.6;67;5062355;6252001;46.266667, -96.6
BFK;Buffalo Municipal Airport;Buffalo;United States;US;36.863333;-99.618611;67;5819881;6252001;36.863333, -99.618611
GLH;Greenville;Greenville;United States;US;33.477222;-90.985;67;5564488;6252001;33.477222, -90.985
TVL;South Lake Tahoe;South Lake Tahoe;United States;US;38.883333;-120.0;67;5397664;6252001;38.883333, -120.0
WTK;Noatak;Noatak;United States;US;67.583333;-163.0;67;\N;6252001;67.583333, -163.0
SMU;Sheep Mountain;Sheep Mountain;United States;US;61.8;-147.666667;67;\N;6252001;61.8, -147.666667
SQV;Sequim Valley Arpt;Sequim;United States;US;48.083333;-123.1;67;5809983;6252001;48.083333, -123.1
CUB;Owens Field;Columbia;United States;US;-10.75;-67.866667;67;5338800;6252001;-10.75, -67.866667
JHY;Hyatt Regency H/P;Cambridge;United States;US;42.366667;-71.102778;67;5247533;6252001;42.366667, -71.102778
PMH;Greater Portsmouth Regional;Portsmouth, OH;United States;US;38.840556;-82.847222;67;5224082;6252001;38.840556, -82.847222
LDJ;Linden;Linden;United States;US;40.633333;-74.25;67;5366582;6252001;40.633333, -74.25
ISS;Wiscasset;Wiscasset;United States;US;43.969444;-69.716667;67;4983359;6252001;43.969444, -69.716667
IRC;Circle City;Circle;United States;US;65.833333;-144.083333;67;\N;6252001;65.833333, -144.083333
MQT;Sawyer International;Marquette;United States;US;46.533333;-87.566667;67;5000947;6252001;46.533333, -87.566667
AHD;Downtown;Ardmore;United States;US;-16.933333;179.9;67;5178481;6252001;-16.933333, 179.9
NUQ;Moffett Field;Mountain View;United States;US;37.383333;-122.066667;67;5851253;6252001;37.383333, -122.066667
MMT;Mc Entire ANG Base;Columbia;United States;US;-10.75;-67.866667;67;5338800;6252001;-10.75, -67.866667
HFF;Mackall AAF;Hoffman;United States;US;-40.2;-72.166667;67;\N;6252001;-40.2, -72.166667
AUO;Auburn-Opelika;Auburn;United States;US;32.616667;-85.433333;67;5785965;6252001;32.616667, -85.433333
GDV;Dawson Community;Glendive;United States;US;47.133333;-104.683333;67;5654391;6252001;47.133333, -104.683333
LPC;Lompoc Airport;Lompoc;United States;US;34.666667;-120.469444;67;5367788;6252001;34.666667, -120.469444
HAB;Marion County;Hamilton;United States;US;34.116667;-88.0;67;5655959;6252001;34.116667, -88.0
DRI;Beauregard Parish;De Ridder;United States;US;53.2;5.45;67;\N;6252001;53.2, 5.45
MSN;Dane County Regional;Madison;United States;US;43.139722;-89.3375;67;5261457;6252001;43.139722, -89.3375
MCO;Orlando International;Orlando;United States;US;28.429444;-81.308889;67;4167147;6252001;28.429444, -81.308889
HUT;Hutchinson;Hutchinson;United States;US;38.066667;-97.866667;67;5030977;6252001;38.066667, -97.866667
SLN;Salina;Salina;United States;US;38.816667;-97.566667;67;5546253;6252001;38.816667, -97.566667
FAK;False Island;False Island;United States;US;57.530556;-135.216667;67;\N;6252001;57.530556, -135.216667
PPM;Pompano Beach;Pompano Beach;United States;US;26.233333;-80.127778;67;4169014;6252001;26.233333, -80.127778
RKW;Municipal;Rockwood;United States;US;35.916667;-84.683333;67;5007451;6252001;35.916667, -84.683333
HRO;Boone County;Harrison;United States;US;36.228333;-93.109722;67;5120095;6252001;36.228333, -93.109722
CVR;Hughes;Culver City;United States;US;34.016667;-118.4;67;5341114;6252001;34.016667, -118.4
SRC;Searcy;Searcy;United States;US;35.25;-91.733333;67;4130430;6252001;35.25, -91.733333
ILI;Iliamna;Iliamna;United States;US;59.733333;-154.966667;67;\N;6252001;59.733333, -154.966667
SOW;Show Low;Show Low, AZ;United States;US;34.265556;-110.005556;67;5314245;6252001;34.265556, -110.005556
FWL;Farewell;Farewell;United States;US;62.516667;-153.9;67;\N;6252001;62.516667, -153.9
FCH;Fresno-Chandler;Fresno;United States;US;19.291389;-99.425833;67;5350937;6252001;19.291389, -99.425833
MMU;Municipal;Morristown;United States;US;40.8;-74.416667;67;5238755;6252001;40.8, -74.416667
CNH;Municipal;Claremont;United States;US;43.366667;-72.366667;67;5337696;6252001;43.366667, -72.366667
BSI;Blairsville;Blairsville;United States;US;40.433333;-79.266667;67;5180834;6252001;40.433333, -79.266667
AZO;Kalamazoo/Battle Creek Intl;Kalamazoo;United States;US;42.235;-85.551944;67;4997787;6252001;42.235, -85.551944
MHM;Intermediate;Minchumina;United States;US;55.583333;-3.016667;67;\N;6252001;55.583333, -3.016667
KUY;Kamusi Airport;Kamusi;United States;US;57.634444;-153.998333;67;\N;6252001;57.634444, -153.998333
ANP;Lee;Annapolis;United States;US;38.983333;-76.5;67;4347242;6252001;38.983333, -76.5
AWM;Municipal;West Memphis;United States;US;35.133333;-90.183333;67;4135865;6252001;35.133333, -90.183333
WWP;Whale Pass;Whale Pass;United States;US;56.116667;-133.125;67;\N;6252001;56.116667, -133.125
PIH;Pocatello;Pocatello;United States;US;42.916667;-112.583333;67;5604045;6252001;42.916667, -112.583333
MSL;Sheffield;Sheffield;United States;US;34.75;-87.616667;67;5281031;6252001;34.75, -87.616667
KCL;Lagoon;Chignik;United States;US;56.3;-158.533333;67;\N;6252001;56.3, -158.533333
FLJ;Falls Bay;Falls Bay;United States;US;60.0325;-148.008333;67;\N;6252001;60.0325, -148.008333
EOS;Neosho;Neosho;United States;US;36.866667;-94.366667;67;4400183;6252001;36.866667, -94.366667
JCI;New Century Aircenter Airport;Olathe, KS;United States;US;38.830833;-94.890278;67;5433349;6252001;38.830833, -94.890278
GEG;Spokane International;Spokane;United States;US;47.619722;-117.533889;67;5811696;6252001;47.619722, -117.533889
BPI;Big Piney-marbleton;Big Piney;United States;US;42.583333;-110.116667;67;\N;6252001;42.583333, -110.116667
CZZ;Campo;Campo;United States;US;18.45;-72.1;67;\N;6252001;18.45, -72.1
HTH;Hawthorne;Hawthorne;United States;US;38.535278;-118.633611;67;5505321;6252001;38.535278, -118.633611
AIA;Alliance;Alliance;United States;US;42.066667;-102.8;67;5693164;6252001;42.066667, -102.8
WSH;Brookhaven;Shirley;United States;US;40.783333;-72.916667;67;5138022;6252001;40.783333, -72.916667
TKA;Talkeetna;Talkeetna;United States;US;62.320556;150.093611;67;5875745;6252001;62.320556, 150.093611
CLU;Columbus Municipal;Columbus;United States;US;39.133333;-85.933333;67;5645893;6252001;39.133333, -85.933333
TLH;Tallahassee Regional Airport;Tallahassee;United States;US;30.396389;-84.350278;67;4174715;6252001;30.396389, -84.350278
MAC;Smart;Macon;United States;US;50.033333;4.2;67;4434645;6252001;50.033333, 4.2
SWO;Searcy Fld;Stillwater;United States;US;36.166667;-97.083333;67;5139732;6252001;36.166667, -97.083333
MCN;Lewis B Wilson;Macon;United States;US;32.683333;-83.65;67;4434645;6252001;32.683333, -83.65
WSD;Condron AAF;White Sands;United States;US;61.833333;-1.833333;67;5497914;6252001;61.833333, -1.833333
SUX;Sioux Gateway;Sioux City;United States;US;42.4;-96.383333;67;4876523;6252001;42.4, -96.383333
TSS;East 34th St Heliport;New York;United States;US;40.744444;-73.970833;67;5128581;6252001;40.744444, -73.970833
SYN;Carleton;Stanton;United States;US;44.468056;-93.0;67;5531683;6252001;44.468056, -93.0
MLF;Milford;Milford;United States;US;38.433333;-113.016667;67;5543146;6252001;38.433333, -113.016667
HUM;Terrebonne;Houma;United States;US;29.583333;-90.666667;67;4328010;6252001;29.583333, -90.666667
LGC;Calloway;La Grange;United States;US;33.016667;-85.083333;67;4898846;6252001;33.016667, -85.083333
NIE;Niblack;Niblack;United States;US;55.066667;-132.15;67;\N;6252001;55.066667, -132.15
EDK;El Dorado;El Dorado;United States;US;37.766667;-96.866667;67;4270863;6252001;37.766667, -96.866667
HTW;Lawrence County Airpark;Chesapeake/Huntington Wv;United States;US;42.2525;-82.494444;67;4801966;6252001;42.2525, -82.494444
BVO;Bartlesville;Bartlesville;United States;US;36.766667;-96.0;67;4529987;6252001;36.766667, -96.0
ZML;Milwaukee General Mitchell;Milwaukee,;United States;US;32.466667;171.916667;67;5263045;6252001;32.466667, 171.916667
PEQ;Pecos City;Pecos City;United States;US;31.4;-103.516667;67;\N;6252001;31.4, -103.516667
ENW;Kenosha Regional Airport;Kenosha;United States;US;42.583333;-87.916667;67;5258393;6252001;42.583333, -87.916667
MBY;Moberly;Moberly;United States;US;39.466667;-92.433333;67;4398730;6252001;39.466667, -92.433333
RAC;Horlick;Racine;United States;US;42.757778;-87.820833;67;5268249;6252001;42.757778, -87.820833
FLV;Sherman AAF;Fort Leavenworth;United States;US;19.833333;-72.5;67;\N;6252001;19.833333, -72.5
EAU;Chippewa Valley Regional Airport;Eau Claire, WI;United States;US;44.865833;-91.484167;67;5251436;6252001;44.865833, -91.484167
AHH;Municipal;Amery;United States;US;45.283333;-92.366667;67;5243872;6252001;45.283333, -92.366667
MHE;Municipal;Mitchell;United States;US;43.766667;-98.033333;67;5697633;6252001;43.766667, -98.033333
FOD;Fort Dodge Regional;Fort Dodge, IA;United States;US;42.551111;-94.191944;67;4857486;6252001;42.551111, -94.191944
NUP;Nunapitchuk;Nunapitchuk;United States;US;60.883333;-162.466667;67;\N;6252001;60.883333, -162.466667
MKC;Downtown;Kansas City;United States;US;39.116667;-94.583333;67;4393217;6252001;39.116667, -94.583333
SSC;Shaw AFB;Sumter;United States;US;53.283333;10.9;67;4597948;6252001;53.283333, 10.9
AHF;Municipal;Arapahoe;United States;US;15.316667;-88.883333;67;5817340;6252001;15.316667, -88.883333
JPD;Heliport;Pasadena;United States;US;34.133333;-118.133333;67;5381396;6252001;34.133333, -118.133333
LZU;Gwinnett County Airport;Lawrenceville;United States;US;33.978056;-83.9625;67;5100356;6252001;33.978056, -83.9625
TOP;Philip Billard;Topeka;United States;US;-13.35;32.766667;67;4927264;6252001;-13.35, 32.766667
IMT;Ford;Iron Mountain;United States;US;45.816667;-88.116667;67;4997232;6252001;45.816667, -88.116667
LNS;Lancaster;Lancaster;United States;US;40.116667;-76.3;67;5364940;6252001;40.116667, -76.3
TLA;Teller;Teller;United States;US;65.240278;-166.339444;67;\N;6252001;65.240278, -166.339444
RED;Mifflin County;Reedsville;United States;US;40.683333;-77.616667;67;5268583;6252001;40.683333, -77.616667
ARG;Walnut Ridge;Walnut Ridge;United States;US;36.116667;-90.916667;67;4135205;6252001;36.116667, -90.916667
PUW;Pullman-Moscow Regional Airport;Pullman;United States;US;46.75;-117.116667;67;5807540;6252001;46.75, -117.116667
ESD;Orcas Island;Eastsound;United States;US;48.716667;-122.816667;67;\N;6252001;48.716667, -122.816667
SHV;Regional;Shreveport;United States;US;32.45;-93.816667;67;4341513;6252001;32.45, -93.816667
MSS;Richards Field;Massena;United States;US;44.933333;-74.85;67;5126194;6252001;44.933333, -74.85
SJT;Mathis Fld;San Angelo;United States;US;31.357778;-100.496389;67;5530022;6252001;31.357778, -100.496389
PIR;Pierre;Pierre;United States;US;44.383333;-100.283333;67;5767918;6252001;44.383333, -100.283333
ETS;Municipal;Enterprise;United States;US;31.316667;-85.85;67;5774535;6252001;31.316667, -85.85
ZRV;Providence Rail;Providence;United States;US;4.616667;-54.4;67;5780020;6252001;4.616667, -54.4
BOK;Brookings State;Brookings;United States;US;42.05;-124.283333;67;5715905;6252001;42.05, -124.283333
TWH;Two Harbors;Catalina Island;United States;US;41.633333;-120.05;67;\N;6252001;41.633333, -120.05
PRF;Port Johnson;Port Johnson;United States;US;55.122222;-132.05;67;\N;6252001;55.122222, -132.05
MWS;Mount Wilson;Mount Wilson;United States;US;51.916667;-2.866667;67;\N;6252001;51.916667, -2.866667
PSX;Palacios;Palacios;United States;US;28.7;-96.216667;67;4717218;6252001;28.7, -96.216667
GBR;Walter J. Koladza Airport;Great Barrington;United States;US;42.184167;-73.403333;67;4938157;6252001;42.184167, -73.403333
GFB;Togiak Fish;Togiak Fish;United States;US;-0.333333;122.0;67;\N;6252001;-0.333333, 122.0
NHZ;NAS;Brunswick;United States;US;50.933333;5.95;67;5148480;6252001;50.933333, 5.95
MAE;Madera;Madera;United States;US;-13.083333;49.083333;67;5369568;6252001;-13.083333, 49.083333
THP;Hot Springs;Thermopolis;United States;US;40.9;23.55;67;5840846;6252001;40.9, 23.55
ZSF;Springfield MA RR;Springfield;United States;US;44.633333;-64.85;67;5754005;6252001;44.633333, -64.85
DET;Detroit City;Detroit, MI;United States;US;42.409167;-83.009722;67;4990729;6252001;42.409167, -83.009722
WSX;Westsound;Westsound;United States;US;48.666667;-122.883333;67;\N;6252001;48.666667, -122.883333
TRM;Thermal;Thermal;United States;US;46.591111;13.825556;67;\N;6252001;46.591111, 13.825556
RBK;French Valley;Rancho;United States;US;-14.333333;-66.5;67;\N;6252001;-14.333333, -66.5
AFF;USAF Academy Airstrip;Colorado Springs;United States;US;38.969722;-104.813056;67;5417598;6252001;38.969722, -104.813056
GWS;Glenwood Springs;Glenwood Springs;United States;US;-32.6;27.55;67;5423092;6252001;-32.6, 27.55
ADS;Addison Airport;Dallas;United States;US;32.968611;-96.836389;67;5722064;6252001;32.968611, -96.836389
FWH;Fort Worth NAS Jrb/Carswell Field;Fort Worth, TX;United States;US;32.769167;-97.441667;67;4691930;6252001;32.769167, -97.441667
BHB;Bar Harbor;Bar Harbor;United States;US;44.45;-68.366667;67;4957320;6252001;44.45, -68.366667
AXV;Neil Armstrong;Wapakoneta;United States;US;40.566667;-84.183333;67;5175670;6252001;40.566667, -84.183333
EVM;Eveleth;Eveleth;United States;US;47.433333;-92.5;67;5025971;6252001;47.433333, -92.5
MRI;Merrill Field;Anchorage;United States;US;61.2;-149.833333;67;5879400;6252001;61.2, -149.833333
TBR;Statesboro-Bulloch County Airport;Statesboro, GA;United States;US;32.482778;-81.736944;67;4224413;6252001;32.482778, -81.736944
XPR;Pine Ridge;Pine Ridge;United States;US;43.016667;-102.516667;67;5767939;6252001;43.016667, -102.516667
SKJ;Sitkinak Cgs;Sitkinak Island;United States;US;56.533333;-154.133333;67;\N;6252001;56.533333, -154.133333
BXC;Boxborough;Boxborough;United States;US;42.483611;-71.535278;67;\N;6252001;42.483611, -71.535278
DUT;Emergency Field;Dutch Harbor;United States;US;53.9;-166.533333;67;\N;6252001;53.9, -166.533333
ILL;Willmar;Willmar;United States;US;45.116667;-95.1;67;5052916;6252001;45.116667, -95.1
JBP;Commerce Bus. Plaza;Los Angeles;United States;US;33.986667;-118.159722;67;5368361;6252001;33.986667, -118.159722
GRE;Municipal;Greenville;United States;US;38.883333;-89.416667;67;5564488;6252001;38.883333, -89.416667
HYR;Municipal;Hayward;United States;US;46.033333;-91.45;67;5355933;6252001;46.033333, -91.45
VEL;Vernal;Vernal, UT;United States;US;40.45;-109.516667;67;5784154;6252001;40.45, -109.516667
BWD;Brownwood;Brownwood;United States;US;31.8;-98.95;67;4676798;6252001;31.8, -98.95
STK;Crosson Field;Sterling;United States;US;40.616667;-103.266667;67;5875173;6252001;40.616667, -103.266667
JAS;County;Jasper;United States;US;30.916667;-94.016667;67;4700731;6252001;30.916667, -94.016667
TPH;Tonopah Arpt;Tonopah;United States;US;38.06;-117.086944;67;5513795;6252001;38.06, -117.086944
NCN;New Chenega;New Chenega;United States;US;60.001111;-148.008333;67;\N;6252001;60.001111, -148.008333
ZSH;Bus Station;Santa Fe;United States;US;1.366667;-77.033333;67;5490263;6252001;1.366667, -77.033333
ULM;New Ulm;New Ulm;United States;US;44.316667;-94.5;67;5039173;6252001;44.316667, -94.5
HEE;Thompson-Robbins;Helena;United States;US;34.583333;-90.666667;67;5656882;6252001;34.583333, -90.666667
LJN;Brazoria County;Lake Jackson;United States;US;29.033333;-95.45;67;4704628;6252001;29.033333, -95.45
ONP;Newport;Newport;United States;US;44.583333;-124.05;67;5804694;6252001;44.583333, -124.05
SPW;Municipal;Spencer;United States;US;43.166667;-95.183333;67;5273956;6252001;43.166667, -95.183333
KIP;Kickapoo;Wichita Falls;United States;US;33.9;-98.5;67;4741752;6252001;33.9, -98.5
WSN;South Naknek;South Naknek;United States;US;58.7;-157.0;67;\N;6252001;58.7, -157.0
SFF;Felts Field;Spokane;United States;US;47.666667;-117.325;67;5811696;6252001;47.666667, -117.325
MFD;Lahm Municipal;Mansfield;United States;US;40.816667;-82.516667;67;5199710;6252001;40.816667, -82.516667
KLG;Municipal;Kalskag;United States;US;61.533333;-160.366667;67;\N;6252001;61.533333, -160.366667
KGX;Grayling;Grayling;United States;US;62.666667;-160.008333;67;4994578;6252001;62.666667, -160.008333
ORQ;Heliport;Norwalk;United States;US;41.116667;-73.45;67;5377995;6252001;41.116667, -73.45
ONH;Municipal;Oneonta;United States;US;42.45;-75.116667;67;5129852;6252001;42.45, -75.116667
EHM;Cape Newenham;Cape Newenham;United States;US;58.633333;-162.066667;67;\N;6252001;58.633333, -162.066667
TOL;Toledo Express;Toledo, OH;United States;US;41.586944;-83.807778;67;5757007;6252001;41.586944, -83.807778
DCA;Ronald Reagan Washington National Airport;Washington, DC;United States;US;38.851944;-77.037778;67;5549222;6252001;38.851944, -77.037778
TEX;Telluride;Telluride;United States;US;42.095278;8.709722;67;5441199;6252001;42.095278, 8.709722
POB;Pope AFB;Fayetteville, NC;United States;US;35.170833;-79.014444;67;5116968;6252001;35.170833, -79.014444
SCC;Prudhoe Bay/Deadhorse;Prudhoe Bay/Deadhorse;United States;US;70.333333;-148.333333;67;\N;6252001;70.333333, -148.333333
MDD;Airpark;Midland;United States;US;44.75;-79.9;67;5803357;6252001;44.75, -79.9
HIE;Regional;Whitefield;United States;US;44.366667;-71.55;67;5094647;6252001;44.366667, -71.55
NME;Nightmute;Nightmute;United States;US;60.483333;-164.0;67;\N;6252001;60.483333, -164.0
NTJ;Manti-Ephraim;Manti;United States;US;39.266667;-111.633333;67;5542758;6252001;39.266667, -111.633333
PKA;SPB;Napaskiak;United States;US;60.7;-161.7;67;\N;6252001;60.7, -161.7
BZS;Buzzards Pt S;Washington;United States;US;49.0;-72.5;67;5549222;6252001;49.0, -72.5
OTO;Vor;Otto;United States;US;35.072222;-105.935556;67;\N;6252001;35.072222, -105.935556
SKW;Intermediate;Skwentna;United States;US;61.95;-151.2;67;\N;6252001;61.95, -151.2
OVE;Oroville;Oroville;United States;US;39.483333;-121.633333;67;5805838;6252001;39.483333, -121.633333
TRH;Trona;Trona;United States;US;35.8125;-117.327222;67;\N;6252001;35.8125, -117.327222
PTU;Platinum;Platinum;United States;US;59.016667;-161.816667;67;\N;6252001;59.016667, -161.816667
TTD;Troutdale;Troutdale;United States;US;54.083333;-1.166667;67;5757477;6252001;54.083333, -1.166667
LFN;Franklin;Louisburg;United States;US;36.1;-78.3;67;4477296;6252001;36.1, -78.3
HII;Municipal;Lake Havasu City;United States;US;34.568333;-114.355278;67;5301388;6252001;34.568333, -114.355278
DNV;Vermilion County;Danville, IL;United States;US;40.199722;-87.595556;67;5341531;6252001;40.199722, -87.595556
CTX;Cortland;Cortland;United States;US;36.5;33.616667;67;5151174;6252001;36.5, 33.616667
NHX;Barin Olf Osn;Foley;United States;US;30.416667;-87.683333;67;5027025;6252001;30.416667, -87.683333
NBU;NAS;Glenview;United States;US;-32.683333;151.633333;67;4893886;6252001;-32.683333, 151.633333
GFL;Warren County;Glens Falls;United States;US;43.35;-73.616667;67;5118693;6252001;43.35, -73.616667
OAJ;Albert J Ellis;Jacksonville;United States;US;34.716667;-77.416667;67;5733409;6252001;34.716667, -77.416667
VIH;Rolla National;Vichy;United States;US;38.316667;-90.833333;67;\N;6252001;38.316667, -90.833333
JAN;Jackson-evers;Jackson;United States;US;32.311111;-90.075833;67;5828648;6252001;32.311111, -90.075833
LWT;Municipal;Lewistown;United States;US;47.05;-109.466667;67;5662162;6252001;47.05, -109.466667
PYL;Perry SPB;Perry Island;United States;US;60.683333;-147.916667;67;\N;6252001;60.683333, -147.916667
JKV;Cherokee County;Jacksonville, TX;United States;US;31.869444;-95.2175;67;5733409;6252001;31.869444, -95.2175
SAS;Salton City;Salton City;United States;US;33.316667;-115.983333;67;5391503;6252001;33.316667, -115.983333
BDG;Blanding;Blanding;United States;US;37.583333;-109.483333;67;5535484;6252001;37.583333, -109.483333
ESF;Esler Field;Alexandria;United States;US;31.4;-92.3;67;5082573;6252001;31.4, -92.3
LNI;Dew Station;Lonely;United States;US;70.916667;-153.25;67;\N;6252001;70.916667, -153.25
LEE;Leesburg;Leesburg;United States;US;28.833333;-81.816667;67;4769125;6252001;28.833333, -81.816667
PTT;Pratt;Pratt;United States;US;37.7;-98.75;67;4277752;6252001;37.7, -98.75
PJS;Port San Juan;Port San Juan;United States;US;60.05;-148.066667;67;\N;6252001;60.05, -148.066667
MUV;Mustin Alf;Philadelphia;United States;US;29.483333;31.066667;67;5131095;6252001;29.483333, 31.066667
JLB;Heliport;Long Beach;United States;US;-53.2;73.483333;67;5801520;6252001;-53.2, 73.483333
AUZ;Municipal Airport;Aurora;United States;US;41.766667;-88.316667;67;5412347;6252001;41.766667, -88.316667
AOH;Allen County;Lima;United States;US;40.716667;-84.033333;67;5160783;6252001;40.716667, -84.033333
EWN;Simmons Nott;New Bern;United States;US;35.066667;-77.05;67;4481682;6252001;35.066667, -77.05
LAM;Los Alamos;Los Alamos;United States;US;35.883333;-106.316667;67;5476825;6252001;35.883333, -106.316667
HLM;Park Township;Holland;United States;US;42.783333;-86.116667;67;5157759;6252001;42.783333, -86.116667
SWF;Stewart;Newburgh;United States;US;41.5;-74.016667;67;5128654;6252001;41.5, -74.016667
CIU;Chippewa County;Sault Ste Marie;United States;US;46.25;-84.466667;67;\N;6252001;46.25, -84.466667
LNR;Tri County;Lone Rock;United States;US;43.183333;-90.2;67;\N;6252001;43.183333, -90.2
SDM;Brown Field Municipal;San Diego;United States;US;32.572222;-116.98;67;5391811;6252001;32.572222, -116.98
ZBP;Baltimore Rail;Baltimore;United States;US;4.666667;-74.516667;67;4505716;6252001;4.666667, -74.516667
CMH;Port Columbus Intl;Columbus;United States;US;40.0;-82.883333;67;5645893;6252001;40.0, -82.883333
GAI;Montgomery County;Gaithersburg;United States;US;39.168333;-77.166111;67;4355843;6252001;39.168333, -77.166111
QWG;Wilgrove Air Park;Charlotte, NC;United States;US;35.213889;-80.67;67;4988584;6252001;35.213889, -80.67
RCK;Coffield;Rockdale;United States;US;30.65;-97.0;67;4907953;6252001;30.65, -97.0
FSU;Fort Sumner;Fort Sumner;United States;US;34.466667;-104.25;67;5468133;6252001;34.466667, -104.25
HKY;Hickory;Hickory;United States;US;35.733333;-81.383333;67;4470778;6252001;35.733333, -81.383333
PVC;Provincetown;Provincetown;United States;US;42.066667;-70.216667;67;4948087;6252001;42.066667, -70.216667
MMN;Minute Man Airfield;Stow;United States;US;42.433333;-71.502778;67;5173171;6252001;42.433333, -71.502778
MHS;Rep;Mount Shasta;United States;US;41.316667;-122.316667;67;5568295;6252001;41.316667, -122.316667
DVN;Davenport;Davenport;United States;US;-24.233333;141.066667;67;5791805;6252001;-24.233333, 141.066667
JHW;Jamestown;Jamestown;United States;US;42.15;-79.25;67;5360382;6252001;42.15, -79.25
CON;Concord;Concord;United States;US;6.683333;-57.9;67;5339111;6252001;6.683333, -57.9
GLW;Municipal;Glasgow;United States;US;37.033333;-85.95;67;5654320;6252001;37.033333, -85.95
IGM;Kingman;Kingman;United States;US;35.25;-113.933333;67;5301067;6252001;35.25, -113.933333
TCC;Tucumcari;Tucumcari;United States;US;-5.6;-42.65;67;5495360;6252001;-5.6, -42.65
NDV;USN Heliport;Anacostia;United States;US;12.15;36.366667;67;\N;6252001;12.15, 36.366667
GBH;Galbraith Lake;Galbraith Lake;United States;US;68.466667;-149.483333;67;\N;6252001;68.466667, -149.483333
VLO;Stolport;Vallejo;United States;US;38.116667;-122.233333;67;5405380;6252001;38.116667, -122.233333
CVO;Albany;Albany;United States;US;44.5;-123.283333;67;5710756;6252001;44.5, -123.283333
CBE;Wiley Ford;Cumberland;United States;US;39.6;-78.766667;67;5249896;6252001;39.6, -78.766667
CLI;Clintonville;Clintonville;United States;US;43.6;-81.533333;67;5248985;6252001;43.6, -81.533333
CIV;Chomley;Chomley;United States;US;55.216667;-132.216667;67;\N;6252001;55.216667, -132.216667
PIB;Hattiesburg-Laurel Regional;Hattiesburg/Laurel, MS;United States;US;31.467222;-89.336944;67;4429295;6252001;31.467222, -89.336944
ONT;Ontario International;Ontario;United States;US;34.056111;-117.601111;67;5744166;6252001;34.056111, -117.601111
HDH;Dillingham Airfield;Oahu;United States;US;3.866667;154.983333;67;\N;6252001;3.866667, 154.983333
NGC;North Rim;Grand Canyon;United States;US;36.183333;-112.133333;67;\N;6252001;36.183333, -112.133333
OTS;Anacortes;Anacortes;United States;US;48.5;-122.616667;67;5785657;6252001;48.5, -122.616667
RBN;Fort Jefferson;Fort Jefferson;United States;US;19.833333;-72.5;67;\N;6252001;19.833333, -72.5
NRC;Aux Field;Crows Landing;United States;US;37.4;-121.066667;67;\N;6252001;37.4, -121.066667
RDM;Roberts Field;Redmond;United States;US;44.25;-121.15;67;5808079;6252001;44.25, -121.15
CPR;Natrona County International Airport;Casper, WY;United States;US;42.908056;-106.464444;67;5820705;6252001;42.908056, -106.464444
IML;Imperial;Imperial;United States;US;40.516667;-101.616667;67;5696354;6252001;40.516667, -101.616667
ATL;Hartsfield-jackson Atlanta International;Atlanta, GA;United States;US;33.636667;-84.428056;67;4883772;6252001;33.636667, -84.428056
KPY;Port Bailey SPB;Port Bailey;United States;US;57.93;-153.040556;67;\N;6252001;57.93, -153.040556
ERR;Errol;Errol;United States;US;44.7925;-71.164722;67;\N;6252001;44.7925, -71.164722
FSM;Regional;Fort Smith;United States;US;35.333333;-94.366667;67;4111410;6252001;35.333333, -94.366667
VGT;North Air Terminal;Las Vegas;United States;US;36.216667;-115.2;67;5506956;6252001;36.216667, -115.2
AFW;Fort Worth Alliance;Fort Worth, TX;United States;US;32.987778;-97.318889;67;4691930;6252001;32.987778, -97.318889
AVO;Municipal;Avon Park;United States;US;27.6;-81.516667;67;4146440;6252001;27.6, -81.516667
OCE;Municipal;Ocean City;United States;US;38.316667;-75.116667;67;4503351;6252001;38.316667, -75.116667
TDW;Tradewind;Amarillo;United States;US;35.166667;-101.833333;67;5516233;6252001;35.166667, -101.833333
CYE;Crystal Lake;Crystal Lake;United States;US;41.210278;-75.832222;67;4889229;6252001;41.210278, -75.832222
VLA;Vandalia;Vandalia;United States;US;38.95;-89.083333;67;4527124;6252001;38.95, -89.083333
ECA;Emmet County Airport;East Tawas;United States;US;44.266667;-83.483333;67;4991692;6252001;44.266667, -83.483333
TNT;Dade Collier;Miami;United States;US;25.861944;-80.896944;67;5304640;6252001;25.861944, -80.896944
TBC;Tuba City;Tuba City;United States;US;13.466667;-14.2;67;5318279;6252001;13.466667, -14.2
HNC;Hatteras;Hatteras;United States;US;35.216667;-75.686111;67;\N;6252001;35.216667, -75.686111
SOL;Solomon;Solomon;United States;US;64.583333;-164.3;67;4279540;6252001;64.583333, -164.3
SMF;Sacramento International;Sacramento, CA;United States;US;38.7;-121.616667;67;5389489;6252001;38.7, -121.616667
DLG;Municipal;Dillingham;United States;US;59.066667;-158.466667;67;5860695;6252001;59.066667, -158.466667
DLH;Duluth International;Duluth;United States;US;46.833333;-92.183333;67;5024719;6252001;46.833333, -92.183333
HHI;Wheeler AFB;Wahiawa;United States;US;13.966667;-4.433333;67;5853992;6252001;13.966667, -4.433333
JEF;Memorial;Jefferson City, MO;United States;US;38.591111;-92.039444;67;4632959;6252001;38.591111, -92.039444
TSP;Kern County;Tehachapi, CA;United States;US;35.135;-118.439167;67;5401297;6252001;35.135, -118.439167
OLD;Old Town;Old Town;United States;US;44.95;-68.666667;67;4974231;6252001;44.95, -68.666667
VIK;Airstrip;Kavik;United States;US;39.733333;36.4;67;\N;6252001;39.733333, 36.4
SFB;Orlando Sanford Intl;Sanford;United States;US;28.783333;-81.25;67;4977762;6252001;28.783333, -81.25
PCE;Painter Creek;Painter Creek;United States;US;47.8;10.216667;67;\N;6252001;47.8, 10.216667
ABI;Municipal;Abilene;United States;US;32.416667;-99.683333;67;4669635;6252001;32.416667, -99.683333
WLR;Loring;Loring;United States;US;55.6;-131.566667;67;\N;6252001;55.6, -131.566667
RIL;Garfield County;Rifle;United States;US;39.516667;-107.716667;67;5436363;6252001;39.516667, -107.716667
HPB;Hooper Bay;Hooper Bay;United States;US;61.5;-166.083333;67;5864197;6252001;61.5, -166.083333
RNH;Municipal;New Richmond;United States;US;45.116667;-92.533333;67;5264475;6252001;45.116667, -92.533333
KKI;Spb;Akiachak;United States;US;60.916667;-161.433333;67;\N;6252001;60.916667, -161.433333
DOF;Dora Bay;Dora Bay;United States;US;55.2125;-132.266667;67;\N;6252001;55.2125, -132.266667
GYR;Litchfield;Goodyear;United States;US;33.433333;-112.35;67;5296266;6252001;33.433333, -112.35
JAE;Technology Park;Atlanta;United States;US;9.716667;-82.983333;67;4883772;6252001;9.716667, -82.983333
KOT;Kotlik;Kotlik;United States;US;63.033333;-163.533333;67;\N;6252001;63.033333, -163.533333
HGR;Wash. County Regional;Hagerstown;United States;US;39.7;-77.716667;67;4357141;6252001;39.7, -77.716667
HAF;Half Moon;Half Moon;United States;US;37.483333;-122.466667;67;4469607;6252001;37.483333, -122.466667
WFB;Waterfront SPB;Ketchikan;United States;US;55.366667;-131.65;67;5554428;6252001;55.366667, -131.65
CNY;Canyonlands Field;Moab;United States;US;38.766667;-109.75;67;5543307;6252001;38.766667, -109.75
NXX;Willow Grove NAS;Willow Grove;United States;US;-38.083333;146.2;67;5219619;6252001;-38.083333, 146.2
TOI;Municipal;Troy;United States;US;54.912778;70.348056;67;5216183;6252001;54.912778, 70.348056
OME;Nome;Nome;United States;US;64.516667;-165.433333;67;5870133;6252001;64.516667, -165.433333
TWF;Joslin Field - Magic Valley Regional;Twin Falls, ID;United States;US;42.481667;-114.487778;67;5610810;6252001;42.481667, -114.487778
LIH;Lihue;Kauai Island;United States;US;21.983333;-159.35;67;\N;6252001;21.983333, -159.35
GRN;Gordon;Gordon;United States;US;42.8;-102.2;67;5695713;6252001;42.8, -102.2
IWD;Gogebic County;Ironwood;United States;US;46.533333;-90.133333;67;4997249;6252001;46.533333, -90.133333
AOO;Martinsburg;Martinsburg;United States;US;40.3;-78.316667;67;5200055;6252001;40.3, -78.316667
NLE;Jerry Tyler Memorial;Niles;United States;US;41.85;-86.216667;67;5164582;6252001;41.85, -86.216667
NIB;Nikolai;Nikolai;United States;US;63.016667;-154.383333;67;\N;6252001;63.016667, -154.383333
CAR;Municipal;Caribou;United States;US;46.866667;-68.016667;67;4960140;6252001;46.866667, -68.016667
RWI;Rocky Mount-wilson;Rocky Mount,;United States;US;35.856389;-77.891944;67;4782691;6252001;35.856389, -77.891944
FBL;Municipal;Faribault;United States;US;44.333333;-93.316667;67;5026291;6252001;44.333333, -93.316667
PHF;Newport News/williamsb;Newport News;United States;US;37.133333;-76.5;67;4776024;6252001;37.133333, -76.5
CFA;Coffee Point;Coffee Point;United States;US;58.230556;-157.5;67;\N;6252001;58.230556, -157.5
MPR;Mcpherson;Mcpherson;United States;US;38.35;-97.683333;67;4275261;6252001;38.35, -97.683333
MUI;Muir AAF;Fort Indiantown;United States;US;19.833333;-72.5;67;\N;6252001;19.833333, -72.5
WTC;World Trade Center;New York;United States;US;40.666667;-74.016667;67;5128581;6252001;40.666667, -74.016667
MCE;Merced Municipal Arpt;Merced;United States;US;37.283333;-120.516667;67;5372253;6252001;37.283333, -120.516667
KPB;Point Baker SPB;Point Baker;United States;US;56.366667;-133.616667;67;\N;6252001;56.366667, -133.616667
PWD;Sherwood;Plentywood;United States;US;48.766667;-104.55;67;5671807;6252001;48.766667, -104.55
BJJ;Wayne County;Wooster;United States;US;40.8;-81.933333;67;5177358;6252001;40.8, -81.933333
KYL;Port Largo;Key Largo;United States;US;25.083333;-80.4;67;4160795;6252001;25.083333, -80.4
ACV;Arcata;Arcata;United States;US;40.983333;-124.1;67;5558953;6252001;40.983333, -124.1
XPU;West Kuparuk;West Kuparuk;United States;US;70.333333;-149.333333;67;\N;6252001;70.333333, -149.333333
ASE;Aspen;Aspen;United States;US;39.223056;-106.868889;67;5412230;6252001;39.223056, -106.868889
TBN;Forney AAF;Fort Leonard Wood;United States;US;37.733333;-92.15;67;\N;6252001;37.733333, -92.15
JSL;Steel Pier Hlpt;Atlantic City;United States;US;39.360556;-74.420833;67;4500546;6252001;39.360556, -74.420833
PSG;Petersburg James A Johnson;Petersburg, AK;United States;US;56.8;-132.983333;67;5556338;6252001;56.8, -132.983333
CRS;Corsicana;Corsicana;United States;US;32.1;-96.466667;67;4683462;6252001;32.1, -96.466667
CRP;Corpus Christi International Airport;Corpus Christi, TX;United States;US;27.770278;-97.501111;67;4683416;6252001;27.770278, -97.501111
CCA;Chaffee AFB;Fort Chaffee;United States;US;19.833333;-72.5;67;\N;6252001;19.833333, -72.5
DEH;Municipal;Decorah;United States;US;43.316667;-91.833333;67;4853608;6252001;43.316667, -91.833333
PTH;Port Heiden;Port Heiden;United States;US;56.966667;-158.633333;67;\N;6252001;56.966667, -158.633333
GST;Gustavus Arpt;Gustavus;United States;US;58.416667;-135.7;67;\N;6252001;58.416667, -135.7
JHM;Kapalua West Maui;Lahaina;United States;US;20.963056;-156.673056;67;5849996;6252001;20.963056, -156.673056
OTM;Industrial;Ottumwa;United States;US;41.1;-92.45;67;4870380;6252001;41.1, -92.45
FSI;Henry Post AAF;Fort Sill;United States;US;19.833333;-72.5;67;\N;6252001;19.833333, -72.5
FNK;Fin Creek;Fin Creek;United States;US;69.5;-147.583333;67;\N;6252001;69.5, -147.583333
CFT;Morenci;Clifton;United States;US;32.95;-109.2;67;5417258;6252001;32.95, -109.2
LOL;Derby Field;Lovelock;United States;US;40.058333;-118.566667;67;5705957;6252001;40.058333, -118.566667
PVW;Hale County;Plainview;United States;US;34.166667;-101.716667;67;5528450;6252001;34.166667, -101.716667
FCY;Municipal;Forrest City;United States;US;34.95;-90.766667;67;4111382;6252001;34.95, -90.766667
VCT;County-Foster;Victoria;United States;US;28.85;-96.916667;67;5051387;6252001;28.85, -96.916667
HNH;Hoonah;Hoonah;United States;US;58.1;-135.433333;67;\N;6252001;58.1, -135.433333
GAK;Gakona;Gakona;United States;US;62.3;-145.3;67;\N;6252001;62.3, -145.3
FNL;Municipal Airport;Fort Collins/Loveland;United States;US;40.583333;-105.083333;67;5577147;6252001;40.583333, -105.083333
CWA;Central Wisconsin;Wausau;United States;US;44.769444;-89.683056;67;5278120;6252001;44.769444, -89.683056
BFF;Scotts Bluff County;Scottsbluff;United States;US;41.866667;-103.6;67;5699404;6252001;41.866667, -103.6
PAH;Barkley Regional;Paducah, KY;United States;US;37.060278;-88.773056;67;5527891;6252001;37.060278, -88.773056
GLV;Golovin;Golovin;United States;US;64.55;-163.016667;67;\N;6252001;64.55, -163.016667
KIC;Mesa Del Rey;King City;United States;US;36.233333;-121.116667;67;5735043;6252001;36.233333, -121.116667
THA;Tullahoma/William Northern Field;Tullahoma, TN;United States;US;35.38;-86.246389;67;4663494;6252001;35.38, -86.246389
KWK;Kwigillingok;Kwigillingok;United States;US;59.816667;-163.15;67;\N;6252001;59.816667, -163.15
BMI;Central Illinois Regional Airport at Bloomington-Normal;Bloomington/Normal, IL;United States;US;40.477222;-88.915833;67;5329408;6252001;40.477222, -88.915833
ROC;Greater Rochester International;Rochester, NY;United States;US;43.118889;-77.6725;67;5808524;6252001;43.118889, -77.6725
GAL;Galena;Galena;United States;US;64.716667;-156.933333;67;4893384;6252001;64.716667, -156.933333
FLG;Pulliam Field;Grand Canyon;United States;US;35.133333;-111.683333;67;\N;6252001;35.133333, -111.683333
NQA;Millington Regional Jetport;Millington, TN;United States;US;35.356667;-89.870278;67;5002100;6252001;35.356667, -89.870278
ICL;Municipal;Clarinda;United States;US;40.733333;-95.033333;67;4851762;6252001;40.733333, -95.033333
MGC;Michigan City Arpt;Michigan City;United States;US;41.7;-86.816667;67;4923531;6252001;41.7, -86.816667
EAR;Kearney;Kearney;United States;US;40.733333;-99.016667;67;5071348;6252001;40.733333, -99.016667
OSU;Ohio State University;Columbus;United States;US;40.066667;-83.066667;67;5645893;6252001;40.066667, -83.066667
DRG;Deering;Deering;United States;US;66.083333;-162.766667;67;5085351;6252001;66.083333, -162.766667
HLI;Hollister;Hollister;United States;US;36.85;-121.4;67;5357499;6252001;36.85, -121.4
TIW;Industrial;Tacoma;United States;US;-16.3;-67.45;67;5812944;6252001;-16.3, -67.45
DLL;Dillon;Dillon;United States;US;34.416667;-79.366667;67;5648657;6252001;34.416667, -79.366667
MAW;Malden;Malden;United States;US;36.6;-89.983333;67;4942939;6252001;36.6, -89.983333
WBQ;Beaver;Beaver;United States;US;66.35;-147.4;67;5534882;6252001;66.35, -147.4
MTH;Marathon Flight Strip;Marathon;United States;US;24.716667;-81.05;67;5261788;6252001;24.716667, -81.05
PHK;Palm Beach Co Glades;Pahokee;United States;US;26.816667;-80.65;67;4167473;6252001;26.816667, -80.65
COA;Columbia;Columbia;United States;US;38.033333;-120.416667;67;5338800;6252001;38.033333, -120.416667
GTR;Golden Triangle Reg.;Columbus;United States;US;33.466667;-88.383333;67;5645893;6252001;33.466667, -88.383333
UDD;Bermuda Dunes;Palm Springs;United States;US;33.733333;-116.266667;67;5380668;6252001;33.733333, -116.266667
GHM;Municipal;Centerville;United States;US;35.783333;-87.466667;67;5772654;6252001;35.783333, -87.466667
HKB;Healy Lake;Healy Lake;United States;US;63.866667;-148.966667;67;\N;6252001;63.866667, -148.966667
HVR;City County;Havre;United States;US;48.55;-109.766667;67;5656497;6252001;48.55, -109.766667
JGC;Heliport;Grand Canyon;United States;US;35.975;-112.140278;67;\N;6252001;35.975, -112.140278
MUE;Kamuela;Kamuela;United States;US;20.0;-155.683333;67;\N;6252001;20.0, -155.683333
MXA;Municipal;Manila;United States;US;4.766667;-74.433333;67;4120426;6252001;4.766667, -74.433333
COD;Yellowstone Regional;Cody/Yellowstone;United States;US;44.516667;-109.033333;67;5821593;6252001;44.516667, -109.033333
PTA;Port Alsworth;Port Alsworth;United States;US;60.2;-154.333333;67;\N;6252001;60.2, -154.333333
PTN;Williams Memorial;Patterson;United States;US;29.75;-91.308333;67;5381515;6252001;29.75, -91.308333
BTF;Salt Lake Skypark;Bountiful;United States;US;40.883333;-111.883333;67;5771826;6252001;40.883333, -111.883333
SPS;Sheppard AFB;Wichita Falls;United States;US;33.983333;-98.516667;67;4741752;6252001;33.983333, -98.516667
SLK;Adirondack;Saranac Lake;United States;US;44.4;-74.2;67;5136322;6252001;44.4, -74.2
ZWI;Wilmington Rail;Wilmington;United States;US;-32.65;138.1;67;4955840;6252001;-32.65, 138.1
EST;Municipal;Estherville;United States;US;43.4;-94.833333;67;4855709;6252001;43.4, -94.833333
BGS;Webb AFB;Big Spring;United States;US;-18.516666999999998;124.266667;67;5517061;6252001;-18.516666999999998, 124.266667
ABR;Municipal;Aberdeen;United States;US;45.45;-98.433333;67;5785243;6252001;45.45, -98.433333
NKX;Miramar MCAS;San Diego;United States;US;32.868333;-117.1425;67;5391811;6252001;32.868333, -117.1425
WPO;North Fork Valley;Paonia;United States;US;38.866667;-107.6;67;5550409;6252001;38.866667, -107.6
MKO;Davis Field;Muskogee;United States;US;35.666667;-95.366667;67;4543338;6252001;35.666667, -95.366667
MGE;Dobbins Afb;Marietta;United States;US;33.912222;-84.515278;67;5802418;6252001;33.912222, -84.515278
XZU;Off line Point;Rail;United States;US;37.716667;28.966667;67;\N;6252001;37.716667, 28.966667
ESO;Espanola;Espanola;United States;US;36.1;-106.033333;67;5467024;6252001;36.1, -106.033333
PLN;Emmet County;Pellston;United States;US;45.566667;-84.8;67;\N;6252001;45.566667, -84.8
ARA;Acadiana Regional;New Iberia;United States;US;80.133333;32.583333;67;4334971;6252001;80.133333, 32.583333
JDT;Downtown Heliport;Minneapolis;United States;US;8.316667;40.033333;67;5037649;6252001;8.316667, 40.033333
TVC;Cherry Capital Airport;Traverse City;United States;US;44.741389;-85.582222;67;5012495;6252001;44.741389, -85.582222
LOR;Lowe Army Heliport;Ozark;United States;US;53.116667;22.45;67;4402245;6252001;53.116667, 22.45
UOX;University-Oxford;Oxford;United States;US;34.383333;-89.533333;67;5130319;6252001;34.383333, -89.533333
FFA;First Flight;Kill Devil Hills;United States;US;36.016667;-75.666667;67;4474274;6252001;36.016667, -75.666667
HPT;Municipal;Hampton;United States;US;42.75;-93.2;67;5098787;6252001;42.75, -93.2
GAM;Gambell;Gambell;United States;US;63.766667;-171.75;67;\N;6252001;63.766667, -171.75
LBL;Municipal;Liberal;United States;US;37.05;-100.966667;67;5445820;6252001;37.05, -100.966667
WSF;Sarichef;Sarichef;United States;US;31.1;-1.383333;67;\N;6252001;31.1, -1.383333
TPO;Tanalian Point;Tanalian Point;United States;US;3.711944;-75.469444;67;\N;6252001;3.711944, -75.469444
MOD;Municipal;Modesto, CA;United States;US;37.625833;-120.954444;67;5373900;6252001;37.625833, -120.954444
RHV;Reid-hillview;San Jose;United States;US;22.916667;-80.883333;67;5392171;6252001;22.916667, -80.883333
BFI;Boeing Field/King County International Airport;Seattle;United States;US;47.53;-122.301944;67;5809844;6252001;47.53, -122.301944
FLT;Flat;Flat;United States;US;62.45;-158.0;67;\N;6252001;62.45, -158.0
ACY;Atlantic City Intl;Atlantic City;United States;US;39.466667;-74.583333;67;4500546;6252001;39.466667, -74.583333
FNR;SPB;Funter Bay;United States;US;58.233333;-134.916667;67;\N;6252001;58.233333, -134.916667
IAD;Washington Dulles International;Washington, DC;United States;US;38.944444;-77.455833;67;5549222;6252001;38.944444, -77.455833
KNB;Kanab;Kanab;United States;US;37.25;-112.833333;67;5541458;6252001;37.25, -112.833333
JDM;Downtown Heliport;Miami;United States;US;10.016667;-73.65;67;5304640;6252001;10.016667, -73.65
HLB;Hillenbrand;Batesville;United States;US;39.3;-85.216667;67;4672600;6252001;39.3, -85.216667
BFT;County;Beaufort;United States;US;32.416667;-80.633333;67;4570284;6252001;32.416667, -80.633333
OBU;Kobuk/Wien;Kobuk;United States;US;66.933333;-156.866667;67;\N;6252001;66.933333, -156.866667
ABL;Ambler;Ambler;United States;US;67.1;-157.816667;67;5178225;6252001;67.1, -157.816667
BTR;Ryan;Baton Rouge;United States;US;30.533333;-91.15;67;4315588;6252001;30.533333, -91.15
BIS;Bismarck;Bismarck;United States;US;46.783333;-100.75;67;5688025;6252001;46.783333, -100.75
DEN;Denver International;Denver;United States;US;39.861667;-104.673056;67;5419384;6252001;39.861667, -104.673056
FRH;Municipal;French Lick;United States;US;38.55;-86.616667;67;4257770;6252001;38.55, -86.616667
SAA;Shively Field;Saratoga;United States;US;41.45;-106.8;67;5837593;6252001;41.45, -106.8
CEU;Oconee County;Clemson;United States;US;34.666667;-82.883333;67;4574989;6252001;34.666667, -82.883333
PSP;Municipal;Palm Springs;United States;US;33.833333;-116.5;67;5380668;6252001;33.833333, -116.5
CSM;Sherman;Clinton;United States;US;35.516667;-98.983333;67;5773001;6252001;35.516667, -98.983333
NEL;Naec;Lakehurst;United States;US;36.833333;49.4;67;5100269;6252001;36.833333, 49.4
FXM;Flaxman Island;Flaxman Island;United States;US;70.216667;-146.0;67;\N;6252001;70.216667, -146.0
AGS;Bush Field;Augusta;United States;US;33.366667;-81.966667;67;5244365;6252001;33.366667, -81.966667
LUR;Cape Lisburne;Cape Lisburne;United States;US;68.866667;-166.1;67;\N;6252001;68.866667, -166.1
MTN;Glenn L Martin;Baltimore;United States;US;39.183333;-76.683333;67;4505716;6252001;39.183333, -76.683333
CKM;Fletcher Field;Clarksdale, MS;United States;US;34.299722;-90.512222;67;4421935;6252001;34.299722, -90.512222
CPS;St. Louis Downtown Airport;St Louis, Il;United States;US;38.570833;-90.156111;67;\N;6252001;38.570833, -90.156111
COM;Coleman;Coleman;United States;US;31.833333;-99.433333;67;4989304;6252001;31.833333, -99.433333
CKU;City;Cordova;United States;US;9.633333;-74.783333;67;5859888;6252001;9.633333, -74.783333
LAF;Purdue University;Lafayette;United States;US;40.416667;-86.933333;67;5735609;6252001;40.416667, -86.933333
FMY;Page Field;Fort Myers;United States;US;26.583333;-81.866667;67;4155995;6252001;26.583333, -81.866667
SWD;Seward;Seward;United States;US;60.133333;-149.416667;67;5873776;6252001;60.133333, -149.416667
LAR;General Brees Field;Laramie;United States;US;41.316667;-105.666667;67;5830062;6252001;41.316667, -105.666667
QNY;Marine Air Terminal;New York;United States;US;5.5;-70.483333;67;5128581;6252001;5.5, -70.483333
POU;Dutchess County;Poughkeepsie;United States;US;41.633333;-73.883333;67;5132143;6252001;41.633333, -73.883333
ARB;Municipal;Ann Arbor, MI;United States;US;42.223056;-83.745556;67;4984247;6252001;42.223056, -83.745556
BKL;Burke Lakefront;Cleveland;United States;US;41.511111;-81.688889;67;5248933;6252001;41.511111, -81.688889
SLG;Smith Field;Siloam Springs;United States;US;36.183333;-94.533333;67;4131116;6252001;36.183333, -94.533333
WHT;Wharton;Wharton;United States;US;29.316667;-96.1;67;5106361;6252001;29.316667, -96.1
EHT;Rentschler;East Hartford;United States;US;41.766667;-72.65;67;4833403;6252001;41.766667, -72.65
GRR;Kent County Intl;Grand Rapids;United States;US;42.883333;-85.533333;67;5028537;6252001;42.883333, -85.533333
VJI;Virginia Highlands;Abingdon;United States;US;-0.616667;-90.883333;67;4882839;6252001;-0.616667, -90.883333
IRS;Kirsch Municipal;Sturgis;United States;US;41.8;-85.416667;67;5769489;6252001;41.8, -85.416667
CBM;Columbus AFB;Columbus, MS;United States;US;33.643889;-88.443889;67;5645893;6252001;33.643889, -88.443889
FOX;Fox;Fox;United States;US;64.85;-147.766667;67;\N;6252001;64.85, -147.766667
PMB;Intermediate;Pembina;United States;US;48.95;-97.233333;67;\N;6252001;48.95, -97.233333
AIO;Municipal;Atlantic;United States;US;41.4;-95.016667;67;4847385;6252001;41.4, -95.016667
KCN;SPB;Chernofski;United States;US;53.416667;-167.55;67;\N;6252001;53.416667, -167.55
OLF;International;Wolf Point;United States;US;48.083333;-105.566667;67;5687028;6252001;48.083333, -105.566667
EGP;Maverick Co;Eagle Pass;United States;US;28.866667;-100.533333;67;5520677;6252001;28.866667, -100.533333
CEV;Mettle Field;Connersville;United States;US;39.633333;-85.133333;67;4256085;6252001;39.633333, -85.133333
TRX;Memorial;Trenton;United States;US;44.1;-77.583333;67;5105496;6252001;44.1, -77.583333
MLL;Marshall;Marshall;United States;US;61.883333;-162.066667;67;5261952;6252001;61.883333, -162.066667
PDX;Portland International;Portland, OR;United States;US;45.588611;-122.5975;67;5746545;6252001;45.588611, -122.5975
BSQ;Bisbee Municipal Arpt;Bisbee;United States;US;31.363889;-109.881111;67;5284905;6252001;31.363889, -109.881111
EUF;Weedon Field;Eufaula;United States;US;31.95;-85.133333;67;4536031;6252001;31.95, -85.133333
IGG;Igiugig;Igiugig;United States;US;59.316667;-155.9;67;\N;6252001;59.316667, -155.9
NTD;Point Mugu NAS;Port Hueneme, CA;United States;US;34.120278;-119.121111;67;5384339;6252001;34.120278, -119.121111
KPV;Perryville SPB;Perryville;United States;US;55.9;-159.133333;67;4402998;6252001;55.9, -159.133333
ROW;Industrial;Roswell;United States;US;33.416667;-104.55;67;5488441;6252001;33.416667, -104.55
CKK;Cherokee;Cherokee;United States;US;36.283333;-91.5;67;4851247;6252001;36.283333, -91.5
SHX;Shageluk;Shageluk;United States;US;62.633333;-159.583333;67;\N;6252001;62.633333, -159.583333
MKF;Mckenna AAF;Columbus;United States;US;-12.5625;39.896389;67;5645893;6252001;-12.5625, 39.896389
ELY;Yelland;Ely;United States;US;39.3;-114.85;67;5503694;6252001;39.3, -114.85
AKK;Akhiok SPB;Akhiok;United States;US;56.95;-154.166667;67;\N;6252001;56.95, -154.166667
LOU;Bowman Field Airport;Louisville;United States;US;38.227778;-85.663611;67;5429522;6252001;38.227778, -85.663611
MER;Castle AFB;Atwater, CA;United States;US;37.380556;-120.568056;67;5325187;6252001;37.380556, -120.568056
WBU;Municipal;Boulder;United States;US;40.033333;-105.233333;67;5641473;6252001;40.033333, -105.233333
MTJ;Montrose Regional Airport;Montrose;United States;US;38.509722;-107.894167;67;5431710;6252001;38.509722, -107.894167
AKN;King Salmon;King Salmon;United States;US;58.516667;-156.633333;67;\N;6252001;58.516667, -156.633333
EBS;Municipal;Webster City;United States;US;42.466667;-93.8;67;4881096;6252001;42.466667, -93.8
SSU;Greenbrier;White Sulphur Springs;United States;US;61.833333;-1.833333;67;5686092;6252001;61.833333, -1.833333
OZR;Cairns AAF;Ozark;United States;US;53.116667;22.45;67;4402245;6252001;53.116667, 22.45
CUW;Cube Cove;Cube Cove;United States;US;58.35;-133.766667;67;\N;6252001;58.35, -133.766667
RIC;Richmond International Airport;Richmond, VA;United States;US;37.5;-77.316667;67;5780388;6252001;37.5, -77.316667
LOT;Lewis Lockport;Lockport;United States;US;41.6;-88.05;67;5125011;6252001;41.6, -88.05
HIK;Hickam AFB;Honolulu;United States;US;21.316111;-157.926667;67;5856195;6252001;21.316111, -157.926667
FCA;Glacier Park International;Kalispell, MT;United States;US;48.316667;-114.266667;67;5660340;6252001;48.316667, -114.266667
PWT;Bremerton;Bremerton;United States;US;47.483333;-122.75;67;5788054;6252001;47.483333, -122.75
JVL;Rock County;Janesville;United States;US;42.616667;-89.033333;67;5257754;6252001;42.616667, -89.033333
GMT;Granite Mountain;Granite Mountain;United States;US;65.4;-161.283333;67;\N;6252001;65.4, -161.283333
FTY;Fulton County;Atlanta;United States;US;9.716667;-82.983333;67;4883772;6252001;9.716667, -82.983333
HMN;Holloman AFB;Alamogordo;United States;US;37.633333;-6.433333;67;5454627;6252001;37.633333, -6.433333
MYL;Mccall;Mccall;United States;US;45.883333;-116.1;67;5600363;6252001;45.883333, -116.1
PTV;Porterville;Porterville;United States;US;36.033333;-119.066667;67;5384471;6252001;36.033333, -119.066667
RIF;Reynolds;Richfield;United States;US;38.75;-112.1;67;5545710;6252001;38.75, -112.1
DHT;Dalhart;Dalhart;United States;US;12.186111;42.89;67;5519862;6252001;12.186111, 42.89
RNC;Warren County;Mcminnville;United States;US;-24.016667;132.25;67;5739936;6252001;-24.016667, 132.25
VCV;Southern California Logistics;Victorville, CA;United States;US;34.5975;-117.383056;67;5406222;6252001;34.5975, -117.383056
MHK;Municipal;Manhattan;United States;US;39.133333;-96.666667;67;5664535;6252001;39.133333, -96.666667
CTW;Cottonwood;Cottonwood;United States;US;34.733333;-112.033333;67;5589704;6252001;34.733333, -112.033333
UGN;Memorial;Waukegan;United States;US;42.35;-87.833333;67;4915734;6252001;42.35, -87.833333
LPO;Municipal;Laporte;United States;US;41.6;-86.716667;67;5578877;6252001;41.6, -86.716667
KBC;Birch Creek;Birch Creek;United States;US;66.266667;-145.8;67;\N;6252001;66.266667, -145.8
PWR;Port Walter;Port Walter;United States;US;56.383333;-134.65;67;\N;6252001;56.383333, -134.65
AHN;Athens;Athens;United States;US;33.95;-83.333333;67;5244312;6252001;33.95, -83.333333
SYB;Seal Bay;Seal Bay;United States;US;58.166667;-152.5;67;\N;6252001;58.166667, -152.5
WMK;SPB;Meyers Chuck;United States;US;55.733333;-132.2;67;\N;6252001;55.733333, -132.2
SVE;Susanville;Susanville;United States;US;40.4;-120.65;67;5572400;6252001;40.4, -120.65
GTF;International;Great Falls;United States;US;47.5;-111.366667;67;5655240;6252001;47.5, -111.366667
MCD;Mackinac Island;Mackinac Island;United States;US;45.865;-84.637222;67;\N;6252001;45.865, -84.637222
BVX;Municipal;Batesville;United States;US;35.766667;-91.65;67;4672600;6252001;35.766667, -91.65
LYU;Ely;Ely;United States;US;47.9;-91.85;67;5503694;6252001;47.9, -91.85
SUE;Door County;Sturgeon Bay;United States;US;44.833333;-87.416667;67;5274867;6252001;44.833333, -87.416667
LVK;Livermore;Livermore;United States;US;37.683333;-121.766667;67;5367440;6252001;37.683333, -121.766667
IKO;Nikolski AFS;Nikolski;United States;US;52.95;-168.866667;67;\N;6252001;52.95, -168.866667
TVI;Municipal;Thomasville;United States;US;51.566667;8.133333;67;4494942;6252001;51.566667, 8.133333
ECS;Mondell;Newcastle;United States;US;43.883333;-104.316667;67;5833349;6252001;43.883333, -104.316667
SME;Pulaski County;Somerset;United States;US;37.083333;-84.6;67;5273620;6252001;37.083333, -84.6
MZZ;Marion;Marion;United States;US;40.483333;-85.683333;67;5261872;6252001;40.483333, -85.683333
UPP;Upolu Point;Upolu Point;United States;US;20.266666999999998;-155.85;67;\N;6252001;20.266666999999998, -155.85
PPA;Perry Lefors Field;Pampa;United States;US;35.533333;-100.95;67;5527953;6252001;35.533333, -100.95
OLH;Old Harbor SPB;Old Harbor;United States;US;57.2;-153.316667;67;\N;6252001;57.2, -153.316667
FTW;Meacham Field;Fort Worth;United States;US;32.855556;-96.85;67;4691930;6252001;32.855556, -96.85
ASN;Talladega;Talladega;United States;US;38.6;-0.683333;67;4092788;6252001;38.6, -0.683333
EMK;Emmonak;Emmonak;United States;US;62.766667;-164.5;67;\N;6252001;62.766667, -164.5
EWK;City-County;Newton;United States;US;38.05;-97.35;67;5101848;6252001;38.05, -97.35
MDF;Medford;Medford;United States;US;45.15;-90.333333;67;5740099;6252001;45.15, -90.333333
BBB;Municipal;Benson;United States;US;45.316667;-95.6;67;5771337;6252001;45.316667, -95.6
PQI;Municipal;Presque Isle;United States;US;46.683333;-68.05;67;4975966;6252001;46.683333, -68.05
BTY;Beatty;Beatty;United States;US;52.9;-1.783332999999999;67;5550561;6252001;52.9, -1.783332999999999
HWO;North Perry;Hollywood;United States;US;26.001389;-80.240556;67;4582042;6252001;26.001389, -80.240556
JOC;Centerport Heliport;Santa Ana;United States;US;1.083333;-77.55;67;5392900;6252001;1.083333, -77.55
OPF;Opa Locka;Miami;United States;US;25.906944;-80.278333;67;5304640;6252001;25.906944, -80.278333
GCN;National Park;Grand Canyon;United States;US;35.95;-112.15;67;\N;6252001;35.95, -112.15
HIB;Chisholm;Chisholm;United States;US;47.383333;-92.833333;67;5021088;6252001;47.383333, -92.833333
UCY;Everett-Stewart;Union City;United States;US;36.416667;-89.05;67;5404555;6252001;36.416667, -89.05
HYA;Barnstable;Hyannis;United States;US;41.669444;-70.280278;67;4940190;6252001;41.669444, -70.280278
GKN;Gulkana;Gulkana;United States;US;62.166667;-145.466667;67;\N;6252001;62.166667, -145.466667
TLR;Mefford Field;Tulare, CA;United States;US;39.156389;-119.326111;67;5403783;6252001;39.156389, -119.326111
LKV;Lake County;Lakeview;United States;US;42.166667;-120.4;67;5735792;6252001;42.166667, -120.4
CZO;Chistochina;Chistochina;United States;US;62.566667;-144.666667;67;\N;6252001;62.566667, -144.666667
CHL;Challis;Challis;United States;US;44.5;-114.233333;67;\N;6252001;44.5, -114.233333
OCW;Warren Field;Washington;United States;US;35.55;-77.05;67;5549222;6252001;35.55, -77.05
FSN;Haley AAF;Fort Sheridan;United States;US;19.833333;-72.5;67;\N;6252001;19.833333, -72.5
SZP;Oxnard;Santa Paula;United States;US;34.347222;-119.061111;67;5393245;6252001;34.347222, -119.061111
LEX;Blue Grass;Lexington;United States;US;38.036389;-84.605833;67;5160635;6252001;38.036389, -84.605833
MCB;Pike County;Mccomb;United States;US;31.15;-90.433333;67;5162260;6252001;31.15, -90.433333
AVX;Avalon Bay;Catalina Island;United States;US;33.333333;-118.35;67;\N;6252001;33.333333, -118.35
RMC;Machesney;Rockford;United States;US;-32.85;24.166667;67;5168451;6252001;-32.85, 24.166667
TRT;Tremonton;Tremonton;United States;US;-7.8;-38.283333;67;5783768;6252001;-7.8, -38.283333
OKS;Oshkosh;Oshkosh;United States;US;41.4;-102.333333;67;5265838;6252001;41.4, -102.333333
CNK;Blosser Municipal;Concordia;United States;US;39.55;-97.65;67;5096867;6252001;39.55, -97.65
AHT;Amchitka;Amchitka;United States;US;51.5;179.0;67;\N;6252001;51.5, 179.0
LVM;Mission Field;Livingston;United States;US;45.666667;-110.566667;67;5663049;6252001;45.666667, -110.566667
AYZ;Zahns;Amityville;United States;US;40.666667;-73.416667;67;5107140;6252001;40.666667, -73.416667
SRU;Skypark;Santa Cruz;United States;US;2.166667;-76.1;67;5393052;6252001;2.166667, -76.1
PMD;La Palmdale Regional Airport;Palmdale, CA;United States;US;34.629444;-118.084444;67;5380698;6252001;34.629444, -118.084444
ADG;Lenawee County;Adrian;United States;US;41.9;-84.033333;67;5015882;6252001;41.9, -84.033333
LAW;Municipal;Lawton;United States;US;34.566667;-98.416667;67;4998956;6252001;34.566667, -98.416667
OMK;Municipal;Omak;United States;US;48.4;-119.533333;67;5805734;6252001;48.4, -119.533333
LTH;Lathrop Wells;Lathrop Wells;United States;US;36.666667;-116.65;67;\N;6252001;36.666667, -116.65
JMS;Jamestown;Jamestown;United States;US;46.933333;-98.683333;67;5360382;6252001;46.933333, -98.683333
CGZ;Municipal;Casa Grande;United States;US;32.883333;-111.75;67;5288636;6252001;32.883333, -111.75
OGG;Kahului;Maui, HI;United States;US;20.898611;-156.430556;67;\N;6252001;20.898611, -156.430556
OCH;A L Mangham Jr. Regional;Nacogdoches, TX;United States;US;31.6;-94.65;67;4713735;6252001;31.6, -94.65
RIE;Rice Lake;Rice Lake;United States;US;45.5;-91.733333;67;5268798;6252001;45.5, -91.733333
GQQ;Galion;Galion;United States;US;40.733333;-82.8;67;5155414;6252001;40.733333, -82.8
GUF;Edwards;Gulf Shores;United States;US;30.289722;-87.671667;67;4065552;6252001;30.289722, -87.671667
